{"type":"FeatureCollection","features":[{"type":"Feature","geometry":{"type":"Point","coordinates":[83.03109,17.76131]},"properties":{"secretariatName":"PAPAYYAPALEM","villageName":"PAPAYYAPALEM","sdtname":"ANAKAPALLI","dtname":"ANAKAPALLI","stname":"ANDHRA PRADESH","country":"India"}},{"type":"Feature","geometry":{"type":"Point","coordinates":[82.9999902,17.7588433]},"properties":{"secretariatName":"MAMIDIPALEM","villageName":"MAMIDIPALEM","sdtname":"ANAKAPALLI","dtname":"ANAKAPALLI","stname":"ANDHRA PRADESH","country":"India"}},{"type":"Feature","geometry":{"type":"Point","coordinates":[82.983906,17.752963]},"properties":{"secretariatName":"VOODERU","villageName":"VOODERU","sdtname":"ANAKAPALLI","dtname":"ANAKAPALLI","stname":"ANDHRA PRADESH","country":"India"}},{"type":"Feature","geometry":{"type":"Point","coordinates":[82.9543542,17.75053671]},"properties":{"secretariatName":"THAGARAMPUDI","villageName":"THAGARAMPUDI","sdtname":"ANAKAPALLI","dtname":"ANAKAPALLI","stname":"ANDHRA PRADESH","country":"India"}},{"type":"Feature","geometry":{"type":"Point","coordinates":[83.04206085,17.7379303]},"properties":{"secretariatName":"CH.N.AGRAHARAM","villageName":"CH.N.AGRAHARAM","sdtname":"ANAKAPALLI","dtname":"ANAKAPALLI","stname":"ANDHRA PRADESH","country":"India"}},{"type":"Feature","geometry":{"type":"Point","coordinates":[83.020529,17.735679]},"properties":{"secretariatName":"MARTURU","villageName":"MARTURU","sdtname":"ANAKAPALLI","dtname":"ANAKAPALLI","stname":"ANDHRA PRADESH","country":"India"}},{"type":"Feature","geometry":{"type":"Point","coordinates":[83.06920542,17.73376256]},"properties":{"secretariatName":"KODURU","villageName":"KODURU","sdtname":"ANAKAPALLI","dtname":"ANAKAPALLI","stname":"ANDHRA PRADESH","country":"India"}},{"type":"Feature","geometry":{"type":"Point","coordinates":[82.9839846,17.7329161]},"properties":{"secretariatName":"BOWLUWADA","villageName":"BOWLUWADA","sdtname":"ANAKAPALLI","dtname":"ANAKAPALLI","stname":"ANDHRA PRADESH","country":"India"}},{"type":"Feature","geometry":{"type":"Point","coordinates":[82.9188903,17.7239218]},"properties":{"secretariatName":"KUNDRAM","villageName":"KUNDRAM","sdtname":"ANAKAPALLI","dtname":"ANAKAPALLI","stname":"ANDHRA PRADESH","country":"India"}},{"type":"Feature","geometry":{"type":"Point","coordinates":[82.946291,17.723074]},"properties":{"secretariatName":"KUNCHANGI","villageName":"KUNCHANGI","sdtname":"ANAKAPALLI","dtname":"ANAKAPALLI","stname":"ANDHRA PRADESH","country":"India"}},{"type":"Feature","geometry":{"type":"Point","coordinates":[82.96819833,17.72292]},"properties":{"secretariatName":"VENKUPALEM","villageName":"VENKUPALEM","sdtname":"ANAKAPALLI","dtname":"ANAKAPALLI","stname":"ANDHRA PRADESH","country":"India"}},{"type":"Feature","geometry":{"type":"Point","coordinates":[83.069973,17.721547]},"properties":{"secretariatName":"GOPALAPURAM","villageName":"GOPALAPURAM","sdtname":"ANAKAPALLI","dtname":"ANAKAPALLI","stname":"ANDHRA PRADESH","country":"India"}},{"type":"Feature","geometry":{"type":"Point","coordinates":[83.0333036,17.7182664]},"properties":{"secretariatName":"REBAKA","villageName":"REBAKA","sdtname":"ANAKAPALLI","dtname":"ANAKAPALLI","stname":"ANDHRA PRADESH","country":"India"}},{"type":"Feature","geometry":{"type":"Point","coordinates":[82.9985476,17.7154421]},"properties":{"secretariatName":"THUMMAPALA2","villageName":"THUMMAPALA2","sdtname":"ANAKAPALLI","dtname":"ANAKAPALLI","stname":"ANDHRA PRADESH","country":"India"}},{"type":"Feature","geometry":{"type":"Point","coordinates":[82.9985474,17.7154289]},"properties":{"secretariatName":"THUMMAPALA1","villageName":"THUMMAPALA1","sdtname":"ANAKAPALLI","dtname":"ANAKAPALLI","stname":"ANDHRA PRADESH","country":"India"}},{"type":"Feature","geometry":{"type":"Point","coordinates":[83.07125474,17.71314629]},"properties":{"secretariatName":"AKKIREDDIPALEM","villageName":"AKKIREDDIPALEM","sdtname":"ANAKAPALLI","dtname":"ANAKAPALLI","stname":"ANDHRA PRADESH","country":"India"}},{"type":"Feature","geometry":{"type":"Point","coordinates":[83.027369,17.712488]},"properties":{"secretariatName":"SANKARAM","villageName":"SANKARAM","sdtname":"ANAKAPALLI","dtname":"ANAKAPALLI","stname":"ANDHRA PRADESH","country":"India"}},{"type":"Feature","geometry":{"type":"Point","coordinates":[83.045,17.711331]},"properties":{"secretariatName":"GOLAGAM","villageName":"GOLAGAM","sdtname":"ANAKAPALLI","dtname":"ANAKAPALLI","stname":"ANDHRA PRADESH","country":"India"}},{"type":"Feature","geometry":{"type":"Point","coordinates":[83.001528,17.701841]},"properties":{"secretariatName":"THUMMAPALA3","villageName":"THUMMAPALA3","sdtname":"ANAKAPALLI","dtname":"ANAKAPALLI","stname":"ANDHRA PRADESH","country":"India"}},{"type":"Feature","geometry":{"type":"Point","coordinates":[83.073031,17.695336]},"properties":{"secretariatName":"MAREDIPUDI","villageName":"MAREDIPUDI","sdtname":"ANAKAPALLI","dtname":"ANAKAPALLI","stname":"ANDHRA PRADESH","country":"India"}},{"type":"Feature","geometry":{"type":"Point","coordinates":[82.9889137,17.6922601]},"properties":{"secretariatName":"SATYANARAYANAPURAM2","villageName":"SATYANARAYANAPURAM2","sdtname":"ANAKAPALLI","dtname":"ANAKAPALLI","stname":"ANDHRA PRADESH","country":"India"}},{"type":"Feature","geometry":{"type":"Point","coordinates":[82.9887798,17.6922122]},"properties":{"secretariatName":"SATYANARAYANAPURAM1","villageName":"SATYANARAYANAPURAM1","sdtname":"ANAKAPALLI","dtname":"ANAKAPALLI","stname":"ANDHRA PRADESH","country":"India"}},{"type":"Feature","geometry":{"type":"Point","coordinates":[82.986275,17.6858696]},"properties":{"secretariatName":"KOTHURU-1","villageName":"KOTHURU-1","sdtname":"ANAKAPALLI","dtname":"ANAKAPALLI","stname":"ANDHRA PRADESH","country":"India"}},{"type":"Feature","geometry":{"type":"Point","coordinates":[82.9877151,17.6852649]},"properties":{"secretariatName":"KOTHURU-2","villageName":"KOTHURU-2","sdtname":"ANAKAPALLI","dtname":"ANAKAPALLI","stname":"ANDHRA PRADESH","country":"India"}},{"type":"Feature","geometry":{"type":"Point","coordinates":[82.9529048,17.6850034]},"properties":{"secretariatName":"SAMPATHIPURAM","villageName":"SAMPATHIPURAM","sdtname":"ANAKAPALLI","dtname":"ANAKAPALLI","stname":"ANDHRA PRADESH","country":"India"}},{"type":"Feature","geometry":{"type":"Point","coordinates":[82.9779675,17.6781249]},"properties":{"secretariatName":"PISINIKADA","villageName":"PISINIKADA","sdtname":"ANAKAPALLI","dtname":"ANAKAPALLI","stname":"ANDHRA PRADESH","country":"India"}},{"type":"Feature","geometry":{"type":"Point","coordinates":[83.07959,17.575203]},"properties":{"secretariatName":"NUNAPARTHI","villageName":"NUNAPARTHI","sdtname":"ATCHUTHAPURAM","dtname":"ANAKAPALLI","stname":"ANDHRA PRADESH","country":"India"}},{"type":"Feature","geometry":{"type":"Point","coordinates":[83.0610866,17.5306491]},"properties":{"secretariatName":"TANTADI","villageName":"TANTADI","sdtname":"ATCHUTHAPURAM","dtname":"ANAKAPALLI","stname":"ANDHRA PRADESH","country":"India"}},{"type":"Feature","geometry":{"type":"Point","coordinates":[83.0432934,17.6023923]},"properties":{"secretariatName":"IRUVADA","villageName":"IRUVADA","sdtname":"ATCHUTHAPURAM","dtname":"ANAKAPALLI","stname":"ANDHRA PRADESH","country":"India"}},{"type":"Feature","geometry":{"type":"Point","coordinates":[83.0348317,17.5472494]},"properties":{"secretariatName":"DOSURU","villageName":"DOSURU","sdtname":"ATCHUTHAPURAM","dtname":"ANAKAPALLI","stname":"ANDHRA PRADESH","country":"India"}},{"type":"Feature","geometry":{"type":"Point","coordinates":[83.013609,17.559329]},"properties":{"secretariatName":"MADUTURU","villageName":"MADUTURU","sdtname":"ATCHUTHAPURAM","dtname":"ANAKAPALLI","stname":"ANDHRA PRADESH","country":"India"}},{"type":"Feature","geometry":{"type":"Point","coordinates":[83.01109,17.58659]},"properties":{"secretariatName":"AVASOMAVARAM","villageName":"AVASOMAVARAM","sdtname":"ATCHUTHAPURAM","dtname":"ANAKAPALLI","stname":"ANDHRA PRADESH","country":"India"}},{"type":"Feature","geometry":{"type":"Point","coordinates":[83.0013888,17.5867161]},"properties":{"secretariatName":"CHEEMALAPALLI","villageName":"CHEEMALAPALLI","sdtname":"ATCHUTHAPURAM","dtname":"ANAKAPALLI","stname":"ANDHRA PRADESH","country":"India"}},{"type":"Feature","geometry":{"type":"Point","coordinates":[82.9994189,17.5007044]},"properties":{"secretariatName":"PUDIMADAKA-2","villageName":"PUDIMADAKA-2","sdtname":"ATCHUTHAPURAM","dtname":"ANAKAPALLI","stname":"ANDHRA PRADESH","country":"India"}},{"type":"Feature","geometry":{"type":"Point","coordinates":[82.9994189,17.5007044]},"properties":{"secretariatName":"PUDIMADAKA-1","villageName":"PUDIMADAKA-1","sdtname":"ATCHUTHAPURAM","dtname":"ANAKAPALLI","stname":"ANDHRA PRADESH","country":"India"}},{"type":"Feature","geometry":{"type":"Point","coordinates":[82.992727,17.557277]},"properties":{"secretariatName":"BHOGAPURAM","villageName":"BHOGAPURAM","sdtname":"ATCHUTHAPURAM","dtname":"ANAKAPALLI","stname":"ANDHRA PRADESH","country":"India"}},{"type":"Feature","geometry":{"type":"Point","coordinates":[82.9865033,17.5983869]},"properties":{"secretariatName":"KONDAKARLA","villageName":"KONDAKARLA","sdtname":"ATCHUTHAPURAM","dtname":"ANAKAPALLI","stname":"ANDHRA PRADESH","country":"India"}},{"type":"Feature","geometry":{"type":"Point","coordinates":[82.9806183,17.5494219]},"properties":{"secretariatName":"DUPPITURU","villageName":"DUPPITURU","sdtname":"ATCHUTHAPURAM","dtname":"ANAKAPALLI","stname":"ANDHRA PRADESH","country":"India"}},{"type":"Feature","geometry":{"type":"Point","coordinates":[82.9780659,17.6191635]},"properties":{"secretariatName":"THIMMARAJUPETA","villageName":"THIMMARAJUPETA","sdtname":"ATCHUTHAPURAM","dtname":"ANAKAPALLI","stname":"ANDHRA PRADESH","country":"India"}},{"type":"Feature","geometry":{"type":"Point","coordinates":[82.976906,17.608911]},"properties":{"secretariatName":"HARIPALEM","villageName":"HARIPALEM","sdtname":"ATCHUTHAPURAM","dtname":"ANAKAPALLI","stname":"ANDHRA PRADESH","country":"India"}},{"type":"Feature","geometry":{"type":"Point","coordinates":[82.9757852,17.5749514]},"properties":{"secretariatName":"CHODAPALLI","villageName":"CHODAPALLI","sdtname":"ATCHUTHAPURAM","dtname":"ANAKAPALLI","stname":"ANDHRA PRADESH","country":"India"}},{"type":"Feature","geometry":{"type":"Point","coordinates":[82.9700894,17.5574996]},"properties":{"secretariatName":"VEDURUVADA","villageName":"VEDURUVADA","sdtname":"ATCHUTHAPURAM","dtname":"ANAKAPALLI","stname":"ANDHRA PRADESH","country":"India"}},{"type":"Feature","geometry":{"type":"Point","coordinates":[82.9652385,17.6234702]},"properties":{"secretariatName":"PEDAPADU","villageName":"PEDAPADU","sdtname":"ATCHUTHAPURAM","dtname":"ANAKAPALLI","stname":"ANDHRA PRADESH","country":"India"}},{"type":"Feature","geometry":{"type":"Point","coordinates":[82.9516918,17.5962646]},"properties":{"secretariatName":"UPPAVARAM","villageName":"UPPAVARAM","sdtname":"ATCHUTHAPURAM","dtname":"ANAKAPALLI","stname":"ANDHRA PRADESH","country":"India"}},{"type":"Feature","geometry":{"type":"Point","coordinates":[82.9506205,17.6189435]},"properties":{"secretariatName":"KHAJEEPALEM","villageName":"KHAJEEPALEM","sdtname":"ATCHUTHAPURAM","dtname":"ANAKAPALLI","stname":"ANDHRA PRADESH","country":"India"}},{"type":"Feature","geometry":{"type":"Point","coordinates":[82.9455607,17.5303288]},"properties":{"secretariatName":"DIBBAPALEM-2","villageName":"DIBBAPALEM-2","sdtname":"ATCHUTHAPURAM","dtname":"ANAKAPALLI","stname":"ANDHRA PRADESH","country":"India"}},{"type":"Feature","geometry":{"type":"Point","coordinates":[82.9452679,17.5309343]},"properties":{"secretariatName":"DIBBAPALEM-1","villageName":"DIBBAPALEM-1","sdtname":"ATCHUTHAPURAM","dtname":"ANAKAPALLI","stname":"ANDHRA PRADESH","country":"India"}},{"type":"Feature","geometry":{"type":"Point","coordinates":[82.92931,17.5917912]},"properties":{"secretariatName":"MJPURAM","villageName":"MJPURAM","sdtname":"ATCHUTHAPURAM","dtname":"ANAKAPALLI","stname":"ANDHRA PRADESH","country":"India"}},{"type":"Feature","geometry":{"type":"Point","coordinates":[82.897966,17.775789]},"properties":{"secretariatName":"KANDIPUDI","villageName":"KANDIPUDI","sdtname":"BUTCHAYYAPETA","dtname":"ANAKAPALLI","stname":"ANDHRA PRADESH","country":"India"}},{"type":"Feature","geometry":{"type":"Point","coordinates":[82.891173,17.7360639]},"properties":{"secretariatName":"RAJAM","villageName":"RAJAM","sdtname":"BUTCHAYYAPETA","dtname":"ANAKAPALLI","stname":"ANDHRA PRADESH","country":"India"}},{"type":"Feature","geometry":{"type":"Point","coordinates":[82.8901928,17.713572]},"properties":{"secretariatName":"RSIVARAMPURAM","villageName":"RSIVARAMPURAM","sdtname":"BUTCHAYYAPETA","dtname":"ANAKAPALLI","stname":"ANDHRA PRADESH","country":"India"}},{"type":"Feature","geometry":{"type":"Point","coordinates":[82.8857643,17.687415]},"properties":{"secretariatName":"MALLAM","villageName":"MALLAM","sdtname":"BUTCHAYYAPETA","dtname":"ANAKAPALLI","stname":"ANDHRA PRADESH","country":"India"}},{"type":"Feature","geometry":{"type":"Point","coordinates":[82.883072,17.743593]},"properties":{"secretariatName":"TYPURAM","villageName":"TYPURAM","sdtname":"BUTCHAYYAPETA","dtname":"ANAKAPALLI","stname":"ANDHRA PRADESH","country":"India"}},{"type":"Feature","geometry":{"type":"Point","coordinates":[82.88113333,17.85700833]},"properties":{"secretariatName":"VIJAYARAMARAJUPETA","villageName":"VIJAYARAMARAJUPETA","sdtname":"BUTCHAYYAPETA","dtname":"ANAKAPALLI","stname":"ANDHRA PRADESH","country":"India"}},{"type":"Feature","geometry":{"type":"Point","coordinates":[82.8794511,17.7980786]},"properties":{"secretariatName":"DIBBIDI","villageName":"DIBBIDI","sdtname":"BUTCHAYYAPETA","dtname":"ANAKAPALLI","stname":"ANDHRA PRADESH","country":"India"}},{"type":"Feature","geometry":{"type":"Point","coordinates":[82.8760077,17.7871377]},"properties":{"secretariatName":"BUTCHAYYAPETA","villageName":"BUTCHAYYAPETA","sdtname":"BUTCHAYYAPETA","dtname":"ANAKAPALLI","stname":"ANDHRA PRADESH","country":"India"}},{"type":"Feature","geometry":{"type":"Point","coordinates":[82.8739889,17.8488932]},"properties":{"secretariatName":"VADDADI-2","villageName":"VADDADI-2","sdtname":"BUTCHAYYAPETA","dtname":"ANAKAPALLI","stname":"ANDHRA PRADESH","country":"India"}},{"type":"Feature","geometry":{"type":"Point","coordinates":[82.873837,17.873679]},"properties":{"secretariatName":"MANGALAPURAM","villageName":"MANGALAPURAM","sdtname":"BUTCHAYYAPETA","dtname":"ANAKAPALLI","stname":"ANDHRA PRADESH","country":"India"}},{"type":"Feature","geometry":{"type":"Point","coordinates":[82.8725431,17.8485242]},"properties":{"secretariatName":"VADDADI-1","villageName":"VADDADI-1","sdtname":"BUTCHAYYAPETA","dtname":"ANAKAPALLI","stname":"ANDHRA PRADESH","country":"India"}},{"type":"Feature","geometry":{"type":"Point","coordinates":[82.864362,17.76578]},"properties":{"secretariatName":"PEDAMADINA","villageName":"PEDAMADINA","sdtname":"BUTCHAYYAPETA","dtname":"ANAKAPALLI","stname":"ANDHRA PRADESH","country":"India"}},{"type":"Feature","geometry":{"type":"Point","coordinates":[82.8599661,17.8021532]},"properties":{"secretariatName":"PBHEEMAVARAM","villageName":"PBHEEMAVARAM","sdtname":"BUTCHAYYAPETA","dtname":"ANAKAPALLI","stname":"ANDHRA PRADESH","country":"India"}},{"type":"Feature","geometry":{"type":"Point","coordinates":[82.859876,17.733796]},"properties":{"secretariatName":"TURAKALAPUDI","villageName":"TURAKALAPUDI","sdtname":"BUTCHAYYAPETA","dtname":"ANAKAPALLI","stname":"ANDHRA PRADESH","country":"India"}},{"type":"Feature","geometry":{"type":"Point","coordinates":[82.84856302,17.7874278]},"properties":{"secretariatName":"KPAGRAHARAM","villageName":"KPAGRAHARAM","sdtname":"BUTCHAYYAPETA","dtname":"ANAKAPALLI","stname":"ANDHRA PRADESH","country":"India"}},{"type":"Feature","geometry":{"type":"Point","coordinates":[82.846208,17.823798]},"properties":{"secretariatName":"LOPUDI","villageName":"LOPUDI","sdtname":"BUTCHAYYAPETA","dtname":"ANAKAPALLI","stname":"ANDHRA PRADESH","country":"India"}},{"type":"Feature","geometry":{"type":"Point","coordinates":[82.83934351,17.74181895]},"properties":{"secretariatName":"CHINTAPAKA","villageName":"CHINTAPAKA","sdtname":"BUTCHAYYAPETA","dtname":"ANAKAPALLI","stname":"ANDHRA PRADESH","country":"India"}},{"type":"Feature","geometry":{"type":"Point","coordinates":[82.8312694,17.7646007]},"properties":{"secretariatName":"GUNNEMPUDI","villageName":"GUNNEMPUDI","sdtname":"BUTCHAYYAPETA","dtname":"ANAKAPALLI","stname":"ANDHRA PRADESH","country":"India"}},{"type":"Feature","geometry":{"type":"Point","coordinates":[82.830224,17.711638]},"properties":{"secretariatName":"PEDAPUDI","villageName":"PEDAPUDI","sdtname":"BUTCHAYYAPETA","dtname":"ANAKAPALLI","stname":"ANDHRA PRADESH","country":"India"}},{"type":"Feature","geometry":{"type":"Point","coordinates":[82.8292782,17.8120024]},"properties":{"secretariatName":"POTTIDORAPALEM","villageName":"POTTIDORAPALEM","sdtname":"BUTCHAYYAPETA","dtname":"ANAKAPALLI","stname":"ANDHRA PRADESH","country":"India"}},{"type":"Feature","geometry":{"type":"Point","coordinates":[82.8242676,17.7269234]},"properties":{"secretariatName":"PEDAPUDIAGRAHARAM","villageName":"PEDAPUDIAGRAHARAM","sdtname":"BUTCHAYYAPETA","dtname":"ANAKAPALLI","stname":"ANDHRA PRADESH","country":"India"}},{"type":"Feature","geometry":{"type":"Point","coordinates":[82.8183476,17.800173]},"properties":{"secretariatName":"GANTIKORLAM","villageName":"GANTIKORLAM","sdtname":"BUTCHAYYAPETA","dtname":"ANAKAPALLI","stname":"ANDHRA PRADESH","country":"India"}},{"type":"Feature","geometry":{"type":"Point","coordinates":[82.9387647,17.8851653]},"properties":{"secretariatName":"CHUKKAPALLI","villageName":"CHUKKAPALLI","sdtname":"CHEEDIKADA","dtname":"ANAKAPALLI","stname":"ANDHRA PRADESH","country":"India"}},{"type":"Feature","geometry":{"type":"Point","coordinates":[82.9366112,17.9106982]},"properties":{"secretariatName":"ARJUNAGIRI","villageName":"ARJUNAGIRI","sdtname":"CHEEDIKADA","dtname":"ANAKAPALLI","stname":"ANDHRA PRADESH","country":"India"}},{"type":"Feature","geometry":{"type":"Point","coordinates":[82.9238572,17.9271375]},"properties":{"secretariatName":"TURUVOLU","villageName":"TURUVOLU","sdtname":"CHEEDIKADA","dtname":"ANAKAPALLI","stname":"ANDHRA PRADESH","country":"India"}},{"type":"Feature","geometry":{"type":"Point","coordinates":[82.9145098,17.884186]},"properties":{"secretariatName":"J.B.PURAM","villageName":"J.B.PURAM","sdtname":"CHEEDIKADA","dtname":"ANAKAPALLI","stname":"ANDHRA PRADESH","country":"India"}},{"type":"Feature","geometry":{"type":"Point","coordinates":[82.9021886,17.9082676]},"properties":{"secretariatName":"G.KOTHAPALLI","villageName":"G.KOTHAPALLI","sdtname":"CHEEDIKADA","dtname":"ANAKAPALLI","stname":"ANDHRA PRADESH","country":"India"}},{"type":"Feature","geometry":{"type":"Point","coordinates":[82.89300643,17.92828349]},"properties":{"secretariatName":"CHEEDIKADA","villageName":"CHEEDIKADA","sdtname":"CHEEDIKADA","dtname":"ANAKAPALLI","stname":"ANDHRA PRADESH","country":"India"}},{"type":"Feature","geometry":{"type":"Point","coordinates":[82.880856,17.8812295]},"properties":{"secretariatName":"DIBBAPALEM","villageName":"DIBBAPALEM","sdtname":"CHEEDIKADA","dtname":"ANAKAPALLI","stname":"ANDHRA PRADESH","country":"India"}},{"type":"Feature","geometry":{"type":"Point","coordinates":[82.878147,17.894987]},"properties":{"secretariatName":"BYLAPUDI","villageName":"BYLAPUDI","sdtname":"CHEEDIKADA","dtname":"ANAKAPALLI","stname":"ANDHRA PRADESH","country":"India"}},{"type":"Feature","geometry":{"type":"Point","coordinates":[82.875117,17.903489]},"properties":{"secretariatName":"JAITAVARAM","villageName":"JAITAVARAM","sdtname":"CHEEDIKADA","dtname":"ANAKAPALLI","stname":"ANDHRA PRADESH","country":"India"}},{"type":"Feature","geometry":{"type":"Point","coordinates":[82.868876,17.9337629]},"properties":{"secretariatName":"SIRIJAM","villageName":"SIRIJAM","sdtname":"CHEEDIKADA","dtname":"ANAKAPALLI","stname":"ANDHRA PRADESH","country":"India"}},{"type":"Feature","geometry":{"type":"Point","coordinates":[82.86344,17.896743]},"properties":{"secretariatName":"APPALARAJUPURAM","villageName":"APPALARAJUPURAM","sdtname":"CHEEDIKADA","dtname":"ANAKAPALLI","stname":"ANDHRA PRADESH","country":"India"}},{"type":"Feature","geometry":{"type":"Point","coordinates":[82.861464,17.915949]},"properties":{"secretariatName":"KHANDIVARAM","villageName":"KHANDIVARAM","sdtname":"CHEEDIKADA","dtname":"ANAKAPALLI","stname":"ANDHRA PRADESH","country":"India"}},{"type":"Feature","geometry":{"type":"Point","coordinates":[82.8589531,17.9724731]},"properties":{"secretariatName":"KONAM","villageName":"KONAM","sdtname":"CHEEDIKADA","dtname":"ANAKAPALLI","stname":"ANDHRA PRADESH","country":"India"}},{"type":"Feature","geometry":{"type":"Point","coordinates":[83.0289207,17.8169322]},"properties":{"secretariatName":"ADDURU","villageName":"ADDURU","sdtname":"CHODAVARAM","dtname":"ANAKAPALLI","stname":"ANDHRA PRADESH","country":"India"}},{"type":"Feature","geometry":{"type":"Point","coordinates":[82.992841,17.790569]},"properties":{"secretariatName":"DUDDUPALEM","villageName":"DUDDUPALEM","sdtname":"CHODAVARAM","dtname":"ANAKAPALLI","stname":"ANDHRA PRADESH","country":"India"}},{"type":"Feature","geometry":{"type":"Point","coordinates":[82.9881408,17.7720177]},"properties":{"secretariatName":"GANDHAVARAM","villageName":"GANDHAVARAM","sdtname":"CHODAVARAM","dtname":"ANAKAPALLI","stname":"ANDHRA PRADESH","country":"India"}},{"type":"Feature","geometry":{"type":"Point","coordinates":[82.97956745,17.81145096]},"properties":{"secretariatName":"R.R.PETA","villageName":"R.R.PETA","sdtname":"CHODAVARAM","dtname":"ANAKAPALLI","stname":"ANDHRA PRADESH","country":"India"}},{"type":"Feature","geometry":{"type":"Point","coordinates":[82.9742418,17.7950695]},"properties":{"secretariatName":"VENKANNAPALEM","villageName":"VENKANNAPALEM","sdtname":"CHODAVARAM","dtname":"ANAKAPALLI","stname":"ANDHRA PRADESH","country":"India"}},{"type":"Feature","geometry":{"type":"Point","coordinates":[82.9671258,17.8754614]},"properties":{"secretariatName":"GAVARAVARAM","villageName":"GAVARAVARAM","sdtname":"CHODAVARAM","dtname":"ANAKAPALLI","stname":"ANDHRA PRADESH","country":"India"}},{"type":"Feature","geometry":{"type":"Point","coordinates":[82.9668936,17.8049343]},"properties":{"secretariatName":"AMBERUPURAM","villageName":"AMBERUPURAM","sdtname":"CHODAVARAM","dtname":"ANAKAPALLI","stname":"ANDHRA PRADESH","country":"India"}},{"type":"Feature","geometry":{"type":"Point","coordinates":[82.9661178,17.8205745]},"properties":{"secretariatName":"JUTTADA","villageName":"JUTTADA","sdtname":"CHODAVARAM","dtname":"ANAKAPALLI","stname":"ANDHRA PRADESH","country":"India"}},{"type":"Feature","geometry":{"type":"Point","coordinates":[82.965207,17.7699429]},"properties":{"secretariatName":"MUDDURTHI","villageName":"MUDDURTHI","sdtname":"CHODAVARAM","dtname":"ANAKAPALLI","stname":"ANDHRA PRADESH","country":"India"}},{"type":"Feature","geometry":{"type":"Point","coordinates":[82.9644378,17.8046868]},"properties":{"secretariatName":"GOVADA","villageName":"GOVADA","sdtname":"CHODAVARAM","dtname":"ANAKAPALLI","stname":"ANDHRA PRADESH","country":"India"}},{"type":"Feature","geometry":{"type":"Point","coordinates":[82.962717,17.813515]},"properties":{"secretariatName":"GAJAPATHINAGARAM","villageName":"GAJAPATHINAGARAM","sdtname":"CHODAVARAM","dtname":"ANAKAPALLI","stname":"ANDHRA PRADESH","country":"India"}},{"type":"Feature","geometry":{"type":"Point","coordinates":[82.95966654,17.85045781]},"properties":{"secretariatName":"LAKKAVARAM","villageName":"LAKKAVARAM","sdtname":"CHODAVARAM","dtname":"ANAKAPALLI","stname":"ANDHRA PRADESH","country":"India"}},{"type":"Feature","geometry":{"type":"Point","coordinates":[82.952309,17.777233]},"properties":{"secretariatName":"BHOGAPURAM","villageName":"BHOGAPURAM","sdtname":"CHODAVARAM","dtname":"ANAKAPALLI","stname":"ANDHRA PRADESH","country":"India"}},{"type":"Feature","geometry":{"type":"Point","coordinates":[82.940625,17.8335533]},"properties":{"secretariatName":"CHODAVARAM-5","villageName":"CHODAVARAM-5","sdtname":"CHODAVARAM","dtname":"ANAKAPALLI","stname":"ANDHRA PRADESH","country":"India"}},{"type":"Feature","geometry":{"type":"Point","coordinates":[82.9399333,17.8607637]},"properties":{"secretariatName":"KHANDIPALLY","villageName":"KHANDIPALLY","sdtname":"CHODAVARAM","dtname":"ANAKAPALLI","stname":"ANDHRA PRADESH","country":"India"}},{"type":"Feature","geometry":{"type":"Point","coordinates":[82.9394955,17.8254948]},"properties":{"secretariatName":"CHODAVARAM-1","villageName":"CHODAVARAM-1","sdtname":"CHODAVARAM","dtname":"ANAKAPALLI","stname":"ANDHRA PRADESH","country":"India"}},{"type":"Feature","geometry":{"type":"Point","coordinates":[82.9388,17.8324]},"properties":{"secretariatName":"CHODAVARAM-3","villageName":"CHODAVARAM-3","sdtname":"CHODAVARAM","dtname":"ANAKAPALLI","stname":"ANDHRA PRADESH","country":"India"}},{"type":"Feature","geometry":{"type":"Point","coordinates":[82.9334098,17.8085929]},"properties":{"secretariatName":"CHODAVARAM-4","villageName":"CHODAVARAM-4","sdtname":"CHODAVARAM","dtname":"ANAKAPALLI","stname":"ANDHRA PRADESH","country":"India"}},{"type":"Feature","geometry":{"type":"Point","coordinates":[82.9329449,17.7696084]},"properties":{"secretariatName":"CHAKIPALLY","villageName":"CHAKIPALLY","sdtname":"CHODAVARAM","dtname":"ANAKAPALLI","stname":"ANDHRA PRADESH","country":"India"}},{"type":"Feature","geometry":{"type":"Point","coordinates":[82.9323021,17.8289065]},"properties":{"secretariatName":"CHODAVARAM-2","villageName":"CHODAVARAM-2","sdtname":"CHODAVARAM","dtname":"ANAKAPALLI","stname":"ANDHRA PRADESH","country":"India"}},{"type":"Feature","geometry":{"type":"Point","coordinates":[82.9288109,17.8306401]},"properties":{"secretariatName":"GANDHIGRAMAM","villageName":"GANDHIGRAMAM","sdtname":"CHODAVARAM","dtname":"ANAKAPALLI","stname":"ANDHRA PRADESH","country":"India"}},{"type":"Feature","geometry":{"type":"Point","coordinates":[82.928245,17.816151]},"properties":{"secretariatName":"ANKUPALEM","villageName":"ANKUPALEM","sdtname":"CHODAVARAM","dtname":"ANAKAPALLI","stname":"ANDHRA PRADESH","country":"India"}},{"type":"Feature","geometry":{"type":"Point","coordinates":[82.924866,17.8323098]},"properties":{"secretariatName":"NARSAYYAPETA","villageName":"NARSAYYAPETA","sdtname":"CHODAVARAM","dtname":"ANAKAPALLI","stname":"ANDHRA PRADESH","country":"India"}},{"type":"Feature","geometry":{"type":"Point","coordinates":[82.9172323,17.8517301]},"properties":{"secretariatName":"LAXMIPURAM","villageName":"LAXMIPURAM","sdtname":"CHODAVARAM","dtname":"ANAKAPALLI","stname":"ANDHRA PRADESH","country":"India"}},{"type":"Feature","geometry":{"type":"Point","coordinates":[82.9169407,17.7882967]},"properties":{"secretariatName":"JANNAVARAM","villageName":"JANNAVARAM","sdtname":"CHODAVARAM","dtname":"ANAKAPALLI","stname":"ANDHRA PRADESH","country":"India"}},{"type":"Feature","geometry":{"type":"Point","coordinates":[82.913047,17.817484]},"properties":{"secretariatName":"GOWRIPATNAM","villageName":"GOWRIPATNAM","sdtname":"CHODAVARAM","dtname":"ANAKAPALLI","stname":"ANDHRA PRADESH","country":"India"}},{"type":"Feature","geometry":{"type":"Point","coordinates":[83.02698667,17.95398833]},"properties":{"secretariatName":"MUSHIDIPALLI","villageName":"MUSHIDIPALLI","sdtname":"DEVARAPALLI","dtname":"ANAKAPALLI","stname":"ANDHRA PRADESH","country":"India"}},{"type":"Feature","geometry":{"type":"Point","coordinates":[83.0117712,17.9467789]},"properties":{"secretariatName":"A.KOTHAPALLI","villageName":"A.KOTHAPALLI","sdtname":"DEVARAPALLI","dtname":"ANAKAPALLI","stname":"ANDHRA PRADESH","country":"India"}},{"type":"Feature","geometry":{"type":"Point","coordinates":[83.0048677,17.9987068]},"properties":{"secretariatName":"NAGAYYAPETA","villageName":"NAGAYYAPETA","sdtname":"DEVARAPALLI","dtname":"ANAKAPALLI","stname":"ANDHRA PRADESH","country":"India"}},{"type":"Feature","geometry":{"type":"Point","coordinates":[83.0040754,17.9843192]},"properties":{"secretariatName":"CHINTALAPUDI","villageName":"CHINTALAPUDI","sdtname":"DEVARAPALLI","dtname":"ANAKAPALLI","stname":"ANDHRA PRADESH","country":"India"}},{"type":"Feature","geometry":{"type":"Point","coordinates":[83.002828,17.931159]},"properties":{"secretariatName":"M.ALAMANDA","villageName":"M.ALAMANDA","sdtname":"DEVARAPALLI","dtname":"ANAKAPALLI","stname":"ANDHRA PRADESH","country":"India"}},{"type":"Feature","geometry":{"type":"Point","coordinates":[83.000418,17.981224]},"properties":{"secretariatName":"KASIPURAM","villageName":"KASIPURAM","sdtname":"DEVARAPALLI","dtname":"ANAKAPALLI","stname":"ANDHRA PRADESH","country":"India"}},{"type":"Feature","geometry":{"type":"Point","coordinates":[82.99983,17.90413]},"properties":{"secretariatName":"KOTHAPENTA","villageName":"KOTHAPENTA","sdtname":"DEVARAPALLI","dtname":"ANAKAPALLI","stname":"ANDHRA PRADESH","country":"India"}},{"type":"Feature","geometry":{"type":"Point","coordinates":[82.99767,17.954004]},"properties":{"secretariatName":"PEDANANDIPALLI","villageName":"PEDANANDIPALLI","sdtname":"DEVARAPALLI","dtname":"ANAKAPALLI","stname":"ANDHRA PRADESH","country":"India"}},{"type":"Feature","geometry":{"type":"Point","coordinates":[82.98711389,18.00352404]},"properties":{"secretariatName":"RAIWADA","villageName":"RAIWADA","sdtname":"DEVARAPALLI","dtname":"ANAKAPALLI","stname":"ANDHRA PRADESH","country":"India"}},{"type":"Feature","geometry":{"type":"Point","coordinates":[82.9807692,17.9905621]},"properties":{"secretariatName":"DEVARAPALLI-1","villageName":"DEVARAPALLI-1","sdtname":"DEVARAPALLI","dtname":"ANAKAPALLI","stname":"ANDHRA PRADESH","country":"India"}},{"type":"Feature","geometry":{"type":"Point","coordinates":[82.9795559,17.9863522]},"properties":{"secretariatName":"DEVARAPALLI-2","villageName":"DEVARAPALLI-2","sdtname":"DEVARAPALLI","dtname":"ANAKAPALLI","stname":"ANDHRA PRADESH","country":"India"}},{"type":"Feature","geometry":{"type":"Point","coordinates":[82.975646,17.9381734]},"properties":{"secretariatName":"TARUVA","villageName":"TARUVA","sdtname":"DEVARAPALLI","dtname":"ANAKAPALLI","stname":"ANDHRA PRADESH","country":"India"}},{"type":"Feature","geometry":{"type":"Point","coordinates":[82.9738823,17.898227]},"properties":{"secretariatName":"VECHALAM","villageName":"VECHALAM","sdtname":"DEVARAPALLI","dtname":"ANAKAPALLI","stname":"ANDHRA PRADESH","country":"India"}},{"type":"Feature","geometry":{"type":"Point","coordinates":[82.9725561,17.9597574]},"properties":{"secretariatName":"MAREPALLI","villageName":"MAREPALLI","sdtname":"DEVARAPALLI","dtname":"ANAKAPALLI","stname":"ANDHRA PRADESH","country":"India"}},{"type":"Feature","geometry":{"type":"Point","coordinates":[82.971117,17.923236]},"properties":{"secretariatName":"MAMIDIPALLI","villageName":"MAMIDIPALLI","sdtname":"DEVARAPALLI","dtname":"ANAKAPALLI","stname":"ANDHRA PRADESH","country":"India"}},{"type":"Feature","geometry":{"type":"Point","coordinates":[82.9676,17.90265]},"properties":{"secretariatName":"KALIGOTLA","villageName":"KALIGOTLA","sdtname":"DEVARAPALLI","dtname":"ANAKAPALLI","stname":"ANDHRA PRADESH","country":"India"}},{"type":"Feature","geometry":{"type":"Point","coordinates":[82.96473,17.882764]},"properties":{"secretariatName":"B.KINTHADA","villageName":"B.KINTHADA","sdtname":"DEVARAPALLI","dtname":"ANAKAPALLI","stname":"ANDHRA PRADESH","country":"India"}},{"type":"Feature","geometry":{"type":"Point","coordinates":[82.9561578,17.9632002]},"properties":{"secretariatName":"TENUGUPUDI","villageName":"TENUGUPUDI","sdtname":"DEVARAPALLI","dtname":"ANAKAPALLI","stname":"ANDHRA PRADESH","country":"India"}},{"type":"Feature","geometry":{"type":"Point","coordinates":[82.9491948,17.9345929]},"properties":{"secretariatName":"VAKAPALLI","villageName":"VAKAPALLI","sdtname":"DEVARAPALLI","dtname":"ANAKAPALLI","stname":"ANDHRA PRADESH","country":"India"}},{"type":"Feature","geometry":{"type":"Point","coordinates":[82.9364863,17.970304]},"properties":{"secretariatName":"GARISINGI","villageName":"GARISINGI","sdtname":"DEVARAPALLI","dtname":"ANAKAPALLI","stname":"ANDHRA PRADESH","country":"India"}},{"type":"Feature","geometry":{"type":"Point","coordinates":[82.5867633,17.7214945]},"properties":{"secretariatName":"KOMIRA","villageName":"KOMIRA","sdtname":"GOLUGONDA","dtname":"ANAKAPALLI","stname":"ANDHRA PRADESH","country":"India"}},{"type":"Feature","geometry":{"type":"Point","coordinates":[82.5807174,17.7354849]},"properties":{"secretariatName":"YETIGARIAMMPETA","villageName":"YETIGARIAMMPETA","sdtname":"GOLUGONDA","dtname":"ANAKAPALLI","stname":"ANDHRA PRADESH","country":"India"}},{"type":"Feature","geometry":{"type":"Point","coordinates":[82.579825,17.6698348]},"properties":{"secretariatName":"GUNDUPALA","villageName":"GUNDUPALA","sdtname":"GOLUGONDA","dtname":"ANAKAPALLI","stname":"ANDHRA PRADESH","country":"India"}},{"type":"Feature","geometry":{"type":"Point","coordinates":[82.574358,17.686852]},"properties":{"secretariatName":"CHEEDIGUMMALA-2","villageName":"CHEEDIGUMMALA-2","sdtname":"GOLUGONDA","dtname":"ANAKAPALLI","stname":"ANDHRA PRADESH","country":"India"}},{"type":"Feature","geometry":{"type":"Point","coordinates":[82.573661,17.687814]},"properties":{"secretariatName":"CHEEDIGUMMALA-1","villageName":"CHEEDIGUMMALA-1","sdtname":"GOLUGONDA","dtname":"ANAKAPALLI","stname":"ANDHRA PRADESH","country":"India"}},{"type":"Feature","geometry":{"type":"Point","coordinates":[82.5730765,17.7090364]},"properties":{"secretariatName":"PAKALAPADU","villageName":"PAKALAPADU","sdtname":"GOLUGONDA","dtname":"ANAKAPALLI","stname":"ANDHRA PRADESH","country":"India"}},{"type":"Feature","geometry":{"type":"Point","coordinates":[82.5599525,17.7181521]},"properties":{"secretariatName":"PUTTADIGAIRAMPETA","villageName":"PUTTADIGAIRAMPETA","sdtname":"GOLUGONDA","dtname":"ANAKAPALLI","stname":"ANDHRA PRADESH","country":"India"}},{"type":"Feature","geometry":{"type":"Point","coordinates":[82.5582526,17.6599895]},"properties":{"secretariatName":"KOTHAYELLAVARAM","villageName":"KOTHAYELLAVARAM","sdtname":"GOLUGONDA","dtname":"ANAKAPALLI","stname":"ANDHRA PRADESH","country":"India"}},{"type":"Feature","geometry":{"type":"Point","coordinates":[82.4984239,17.6854828]},"properties":{"secretariatName":"PAPPUSETTIPALEM","villageName":"PAPPUSETTIPALEM","sdtname":"GOLUGONDA","dtname":"ANAKAPALLI","stname":"ANDHRA PRADESH","country":"India"}},{"type":"Feature","geometry":{"type":"Point","coordinates":[82.4858582,17.695994]},"properties":{"secretariatName":"PATHAMALLAMPETA","villageName":"PATHAMALLAMPETA","sdtname":"GOLUGONDA","dtname":"ANAKAPALLI","stname":"ANDHRA PRADESH","country":"India"}},{"type":"Feature","geometry":{"type":"Point","coordinates":[82.4778669,17.6754853]},"properties":{"secretariatName":"JOGAMPETA","villageName":"JOGAMPETA","sdtname":"GOLUGONDA","dtname":"ANAKAPALLI","stname":"ANDHRA PRADESH","country":"India"}},{"type":"Feature","geometry":{"type":"Point","coordinates":[82.4679928,17.6789036]},"properties":{"secretariatName":"GOLUGONDA","villageName":"GOLUGONDA","sdtname":"GOLUGONDA","dtname":"ANAKAPALLI","stname":"ANDHRA PRADESH","country":"India"}},{"type":"Feature","geometry":{"type":"Point","coordinates":[82.4477044,17.6731642]},"properties":{"secretariatName":"KOTHAMALLAMPETA","villageName":"KOTHAMALLAMPETA","sdtname":"GOLUGONDA","dtname":"ANAKAPALLI","stname":"ANDHRA PRADESH","country":"India"}},{"type":"Feature","geometry":{"type":"Point","coordinates":[82.4280458,17.6629972]},"properties":{"secretariatName":"CHODYAM","villageName":"CHODYAM","sdtname":"GOLUGONDA","dtname":"ANAKAPALLI","stname":"ANDHRA PRADESH","country":"India"}},{"type":"Feature","geometry":{"type":"Point","coordinates":[82.4216212,17.6647143]},"properties":{"secretariatName":"LINGAMPETA","villageName":"LINGAMPETA","sdtname":"GOLUGONDA","dtname":"ANAKAPALLI","stname":"ANDHRA PRADESH","country":"India"}},{"type":"Feature","geometry":{"type":"Point","coordinates":[82.382849,17.6718327]},"properties":{"secretariatName":"A.LPURAM-2","villageName":"A.LPURAM-2","sdtname":"GOLUGONDA","dtname":"ANAKAPALLI","stname":"ANDHRA PRADESH","country":"India"}},{"type":"Feature","geometry":{"type":"Point","coordinates":[82.3788508,17.6733947]},"properties":{"secretariatName":"A.LPURAM-1","villageName":"A.LPURAM-1","sdtname":"GOLUGONDA","dtname":"ANAKAPALLI","stname":"ANDHRA PRADESH","country":"India"}},{"type":"Feature","geometry":{"type":"Point","coordinates":[82.3730398,17.652836]},"properties":{"secretariatName":"KONGASINGI","villageName":"KONGASINGI","sdtname":"GOLUGONDA","dtname":"ANAKAPALLI","stname":"ANDHRA PRADESH","country":"India"}},{"type":"Feature","geometry":{"type":"Point","coordinates":[82.3635714,17.6712005]},"properties":{"secretariatName":"CH.NAGAPURAM","villageName":"CH.NAGAPURAM","sdtname":"GOLUGONDA","dtname":"ANAKAPALLI","stname":"ANDHRA PRADESH","country":"India"}},{"type":"Feature","geometry":{"type":"Point","coordinates":[82.3628721,17.6722764]},"properties":{"secretariatName":"K.D.PETA","villageName":"K.D.PETA","sdtname":"GOLUGONDA","dtname":"ANAKAPALLI","stname":"ANDHRA PRADESH","country":"India"}},{"type":"Feature","geometry":{"type":"Point","coordinates":[83.1067535,17.8774976]},"properties":{"secretariatName":"SUDIVALASA","villageName":"SUDIVALASA","sdtname":"K.KOTAPADU","dtname":"ANAKAPALLI","stname":"ANDHRA PRADESH","country":"India"}},{"type":"Feature","geometry":{"type":"Point","coordinates":[83.10156539,17.8932683]},"properties":{"secretariatName":"MARRIVALASA","villageName":"MARRIVALASA","sdtname":"K.KOTAPADU","dtname":"ANAKAPALLI","stname":"ANDHRA PRADESH","country":"India"}},{"type":"Feature","geometry":{"type":"Point","coordinates":[83.101247,17.920366]},"properties":{"secretariatName":"PINDRANGI","villageName":"PINDRANGI","sdtname":"K.KOTAPADU","dtname":"ANAKAPALLI","stname":"ANDHRA PRADESH","country":"India"}},{"type":"Feature","geometry":{"type":"Point","coordinates":[83.0810729,17.9166194]},"properties":{"secretariatName":"GAVARAPALEM","villageName":"GAVARAPALEM","sdtname":"K.KOTAPADU","dtname":"ANAKAPALLI","stname":"ANDHRA PRADESH","country":"India"}},{"type":"Feature","geometry":{"type":"Point","coordinates":[83.080389,17.932924]},"properties":{"secretariatName":"KORUVADA","villageName":"KORUVADA","sdtname":"K.KOTAPADU","dtname":"ANAKAPALLI","stname":"ANDHRA PRADESH","country":"India"}},{"type":"Feature","geometry":{"type":"Point","coordinates":[83.079558,17.873322]},"properties":{"secretariatName":"K.SANTHAPALEM","villageName":"K.SANTHAPALEM","sdtname":"K.KOTAPADU","dtname":"ANAKAPALLI","stname":"ANDHRA PRADESH","country":"India"}},{"type":"Feature","geometry":{"type":"Point","coordinates":[83.0692064,17.8964151]},"properties":{"secretariatName":"DALIVALASA","villageName":"DALIVALASA","sdtname":"K.KOTAPADU","dtname":"ANAKAPALLI","stname":"ANDHRA PRADESH","country":"India"}},{"type":"Feature","geometry":{"type":"Point","coordinates":[83.0680909,17.9208778]},"properties":{"secretariatName":"K.J.PURAM","villageName":"K.J.PURAM","sdtname":"K.KOTAPADU","dtname":"ANAKAPALLI","stname":"ANDHRA PRADESH","country":"India"}},{"type":"Feature","geometry":{"type":"Point","coordinates":[83.0618096,17.8567584]},"properties":{"secretariatName":"ARLE","villageName":"ARLE","sdtname":"K.KOTAPADU","dtname":"ANAKAPALLI","stname":"ANDHRA PRADESH","country":"India"}},{"type":"Feature","geometry":{"type":"Point","coordinates":[83.059995,17.931158]},"properties":{"secretariatName":"R.Y.AGRAHARAM","villageName":"R.Y.AGRAHARAM","sdtname":"K.KOTAPADU","dtname":"ANAKAPALLI","stname":"ANDHRA PRADESH","country":"India"}},{"type":"Feature","geometry":{"type":"Point","coordinates":[83.054818,17.873152]},"properties":{"secretariatName":"KINTADA","villageName":"KINTADA","sdtname":"K.KOTAPADU","dtname":"ANAKAPALLI","stname":"ANDHRA PRADESH","country":"India"}},{"type":"Feature","geometry":{"type":"Point","coordinates":[83.0525296,17.8982085]},"properties":{"secretariatName":"SINGANDORAPALEM","villageName":"SINGANDORAPALEM","sdtname":"K.KOTAPADU","dtname":"ANAKAPALLI","stname":"ANDHRA PRADESH","country":"India"}},{"type":"Feature","geometry":{"type":"Point","coordinates":[83.04587189,17.94782439]},"properties":{"secretariatName":"V.SANTHAPALEM","villageName":"V.SANTHAPALEM","sdtname":"K.KOTAPADU","dtname":"ANAKAPALLI","stname":"ANDHRA PRADESH","country":"India"}},{"type":"Feature","geometry":{"type":"Point","coordinates":[83.0406844,17.9363445]},"properties":{"secretariatName":"VARADA","villageName":"VARADA","sdtname":"K.KOTAPADU","dtname":"ANAKAPALLI","stname":"ANDHRA PRADESH","country":"India"}},{"type":"Feature","geometry":{"type":"Point","coordinates":[83.038128,17.889154]},"properties":{"secretariatName":"KINTADAKOTAPADU","villageName":"KINTADAKOTAPADU","sdtname":"K.KOTAPADU","dtname":"ANAKAPALLI","stname":"ANDHRA PRADESH","country":"India"}},{"type":"Feature","geometry":{"type":"Point","coordinates":[83.0348422,17.9223024]},"properties":{"secretariatName":"ALAMANDAKODURU","villageName":"ALAMANDAKODURU","sdtname":"K.KOTAPADU","dtname":"ANAKAPALLI","stname":"ANDHRA PRADESH","country":"India"}},{"type":"Feature","geometry":{"type":"Point","coordinates":[83.0272929,17.866031]},"properties":{"secretariatName":"GODUPALEM","villageName":"GODUPALEM","sdtname":"K.KOTAPADU","dtname":"ANAKAPALLI","stname":"ANDHRA PRADESH","country":"India"}},{"type":"Feature","geometry":{"type":"Point","coordinates":[83.0175626,17.852411]},"properties":{"secretariatName":"GULLEPALLE","villageName":"GULLEPALLE","sdtname":"K.KOTAPADU","dtname":"ANAKAPALLI","stname":"ANDHRA PRADESH","country":"India"}},{"type":"Feature","geometry":{"type":"Point","coordinates":[83.015855,17.895743]},"properties":{"secretariatName":"MEDICHERLA","villageName":"MEDICHERLA","sdtname":"K.KOTAPADU","dtname":"ANAKAPALLI","stname":"ANDHRA PRADESH","country":"India"}},{"type":"Feature","geometry":{"type":"Point","coordinates":[83.0097839,17.8828851]},"properties":{"secretariatName":"RONGALINAIDUPALEM","villageName":"RONGALINAIDUPALEM","sdtname":"K.KOTAPADU","dtname":"ANAKAPALLI","stname":"ANDHRA PRADESH","country":"India"}},{"type":"Feature","geometry":{"type":"Point","coordinates":[82.9997198,17.837066]},"properties":{"secretariatName":"CHOWDUVADA-1","villageName":"CHOWDUVADA-1","sdtname":"K.KOTAPADU","dtname":"ANAKAPALLI","stname":"ANDHRA PRADESH","country":"India"}},{"type":"Feature","geometry":{"type":"Point","coordinates":[82.9997198,17.837066]},"properties":{"secretariatName":"CHOWDUVADA-2","villageName":"CHOWDUVADA-2","sdtname":"K.KOTAPADU","dtname":"ANAKAPALLI","stname":"ANDHRA PRADESH","country":"India"}},{"type":"Feature","geometry":{"type":"Point","coordinates":[82.966836,17.667641]},"properties":{"secretariatName":"KASIMKOTA-3","villageName":"KASIMKOTA-3","sdtname":"KASIMKOTA","dtname":"ANAKAPALLI","stname":"ANDHRA PRADESH","country":"India"}},{"type":"Feature","geometry":{"type":"Point","coordinates":[82.9666341,17.6681795]},"properties":{"secretariatName":"KASIMKOTA-1","villageName":"KASIMKOTA-1","sdtname":"KASIMKOTA","dtname":"ANAKAPALLI","stname":"ANDHRA PRADESH","country":"India"}},{"type":"Feature","geometry":{"type":"Point","coordinates":[82.9666331,17.6681825]},"properties":{"secretariatName":"KASIMKOTA-2","villageName":"KASIMKOTA-2","sdtname":"KASIMKOTA","dtname":"ANAKAPALLI","stname":"ANDHRA PRADESH","country":"India"}},{"type":"Feature","geometry":{"type":"Point","coordinates":[82.966608,17.668272]},"properties":{"secretariatName":"KASIMKOTA-4","villageName":"KASIMKOTA-4","sdtname":"KASIMKOTA","dtname":"ANAKAPALLI","stname":"ANDHRA PRADESH","country":"India"}},{"type":"Feature","geometry":{"type":"Point","coordinates":[82.95003194,17.63485405]},"properties":{"secretariatName":"VEDURUPATHI","villageName":"VEDURUPATHI","sdtname":"KASIMKOTA","dtname":"ANAKAPALLI","stname":"ANDHRA PRADESH","country":"India"}},{"type":"Feature","geometry":{"type":"Point","coordinates":[82.9409127,17.6625443]},"properties":{"secretariatName":"BAYYAVARAM","villageName":"BAYYAVARAM","sdtname":"KASIMKOTA","dtname":"ANAKAPALLI","stname":"ANDHRA PRADESH","country":"India"}},{"type":"Feature","geometry":{"type":"Point","coordinates":[82.9382079,17.6428653]},"properties":{"secretariatName":"TEGADA","villageName":"TEGADA","sdtname":"KASIMKOTA","dtname":"ANAKAPALLI","stname":"ANDHRA PRADESH","country":"India"}},{"type":"Feature","geometry":{"type":"Point","coordinates":[82.918488,17.6355496]},"properties":{"secretariatName":"KOTHAPALLI","villageName":"KOTHAPALLI","sdtname":"KASIMKOTA","dtname":"ANAKAPALLI","stname":"ANDHRA PRADESH","country":"India"}},{"type":"Feature","geometry":{"type":"Point","coordinates":[82.9165545,17.6586533]},"properties":{"secretariatName":"JAMMADULAPALEM","villageName":"JAMMADULAPALEM","sdtname":"KASIMKOTA","dtname":"ANAKAPALLI","stname":"ANDHRA PRADESH","country":"India"}},{"type":"Feature","geometry":{"type":"Point","coordinates":[82.905028,17.616023]},"properties":{"secretariatName":"AMEENASAHEBPETA","villageName":"AMEENASAHEBPETA","sdtname":"KASIMKOTA","dtname":"ANAKAPALLI","stname":"ANDHRA PRADESH","country":"India"}},{"type":"Feature","geometry":{"type":"Point","coordinates":[82.8966442,17.6474025]},"properties":{"secretariatName":"UGGINAPALEM","villageName":"UGGINAPALEM","sdtname":"KASIMKOTA","dtname":"ANAKAPALLI","stname":"ANDHRA PRADESH","country":"India"}},{"type":"Feature","geometry":{"type":"Point","coordinates":[82.8928969,17.6329405]},"properties":{"secretariatName":"TALLAPALEM-2","villageName":"TALLAPALEM-2","sdtname":"KASIMKOTA","dtname":"ANAKAPALLI","stname":"ANDHRA PRADESH","country":"India"}},{"type":"Feature","geometry":{"type":"Point","coordinates":[82.8853133,17.6334018]},"properties":{"secretariatName":"TALLAPALEM-1","villageName":"TALLAPALEM-1","sdtname":"KASIMKOTA","dtname":"ANAKAPALLI","stname":"ANDHRA PRADESH","country":"India"}},{"type":"Feature","geometry":{"type":"Point","coordinates":[82.8786993,17.6091847]},"properties":{"secretariatName":"ZATTAPUREDDITHUNI","villageName":"ZATTAPUREDDITHUNI","sdtname":"KASIMKOTA","dtname":"ANAKAPALLI","stname":"ANDHRA PRADESH","country":"India"}},{"type":"Feature","geometry":{"type":"Point","coordinates":[82.8782104,17.6096786]},"properties":{"secretariatName":"CHINTALAPALEM","villageName":"CHINTALAPALEM","sdtname":"KASIMKOTA","dtname":"ANAKAPALLI","stname":"ANDHRA PRADESH","country":"India"}},{"type":"Feature","geometry":{"type":"Point","coordinates":[82.8737523,17.5949347]},"properties":{"secretariatName":"NOTALAGUNTAPALEM","villageName":"NOTALAGUNTAPALEM","sdtname":"KASIMKOTA","dtname":"ANAKAPALLI","stname":"ANDHRA PRADESH","country":"India"}},{"type":"Feature","geometry":{"type":"Point","coordinates":[82.858846,17.6382571]},"properties":{"secretariatName":"G.BHEEMAVARAM","villageName":"G.BHEEMAVARAM","sdtname":"KASIMKOTA","dtname":"ANAKAPALLI","stname":"ANDHRA PRADESH","country":"India"}},{"type":"Feature","geometry":{"type":"Point","coordinates":[82.856091,17.655216]},"properties":{"secretariatName":"ATCHERLA","villageName":"ATCHERLA","sdtname":"KASIMKOTA","dtname":"ANAKAPALLI","stname":"ANDHRA PRADESH","country":"India"}},{"type":"Feature","geometry":{"type":"Point","coordinates":[82.8187706,17.6344579]},"properties":{"secretariatName":"E.CHOUDAVADA","villageName":"E.CHOUDAVADA","sdtname":"KASIMKOTA","dtname":"ANAKAPALLI","stname":"ANDHRA PRADESH","country":"India"}},{"type":"Feature","geometry":{"type":"Point","coordinates":[82.8142705,17.648856]},"properties":{"secretariatName":"THEEDA","villageName":"THEEDA","sdtname":"KASIMKOTA","dtname":"ANAKAPALLI","stname":"ANDHRA PRADESH","country":"India"}},{"type":"Feature","geometry":{"type":"Point","coordinates":[82.7311844,17.5159952]},"properties":{"secretariatName":"PANDURU","villageName":"PANDURU","sdtname":"KOTAURATLA","dtname":"ANAKAPALLI","stname":"ANDHRA PRADESH","country":"India"}},{"type":"Feature","geometry":{"type":"Point","coordinates":[82.7281128,17.5675661]},"properties":{"secretariatName":"CHOWDUVADA","villageName":"CHOWDUVADA","sdtname":"KOTAURATLA","dtname":"ANAKAPALLI","stname":"ANDHRA PRADESH","country":"India"}},{"type":"Feature","geometry":{"type":"Point","coordinates":[82.7119252,17.5654662]},"properties":{"secretariatName":"RAJUPETA","villageName":"RAJUPETA","sdtname":"KOTAURATLA","dtname":"ANAKAPALLI","stname":"ANDHRA PRADESH","country":"India"}},{"type":"Feature","geometry":{"type":"Point","coordinates":[82.6959024,17.5534123]},"properties":{"secretariatName":"KAILASAPATNAM","villageName":"KAILASAPATNAM","sdtname":"KOTAURATLA","dtname":"ANAKAPALLI","stname":"ANDHRA PRADESH","country":"India"}},{"type":"Feature","geometry":{"type":"Point","coordinates":[82.6883957,17.5656098]},"properties":{"secretariatName":"KOTAURATLA-1","villageName":"KOTAURATLA-1","sdtname":"KOTAURATLA","dtname":"ANAKAPALLI","stname":"ANDHRA PRADESH","country":"India"}},{"type":"Feature","geometry":{"type":"Point","coordinates":[82.6883535,17.565413]},"properties":{"secretariatName":"KOTAURATLA-2","villageName":"KOTAURATLA-2","sdtname":"KOTAURATLA","dtname":"ANAKAPALLI","stname":"ANDHRA PRADESH","country":"India"}},{"type":"Feature","geometry":{"type":"Point","coordinates":[82.679974,17.5773207]},"properties":{"secretariatName":"THANGEDU","villageName":"THANGEDU","sdtname":"KOTAURATLA","dtname":"ANAKAPALLI","stname":"ANDHRA PRADESH","country":"India"}},{"type":"Feature","geometry":{"type":"Point","coordinates":[82.6721092,17.5939461]},"properties":{"secretariatName":"SUNKAPURU","villageName":"SUNKAPURU","sdtname":"KOTAURATLA","dtname":"ANAKAPALLI","stname":"ANDHRA PRADESH","country":"India"}},{"type":"Feature","geometry":{"type":"Point","coordinates":[82.6672312,17.5673084]},"properties":{"secretariatName":"LINGAPURAM","villageName":"LINGAPURAM","sdtname":"KOTAURATLA","dtname":"ANAKAPALLI","stname":"ANDHRA PRADESH","country":"India"}},{"type":"Feature","geometry":{"type":"Point","coordinates":[82.649153,17.613814]},"properties":{"secretariatName":"YENDAPALLI","villageName":"YENDAPALLI","sdtname":"KOTAURATLA","dtname":"ANAKAPALLI","stname":"ANDHRA PRADESH","country":"India"}},{"type":"Feature","geometry":{"type":"Point","coordinates":[82.648823,17.596041]},"properties":{"secretariatName":"B.K.PALLI","villageName":"B.K.PALLI","sdtname":"KOTAURATLA","dtname":"ANAKAPALLI","stname":"ANDHRA PRADESH","country":"India"}},{"type":"Feature","geometry":{"type":"Point","coordinates":[82.6441505,17.5845548]},"properties":{"secretariatName":"R.C.PALEM","villageName":"R.C.PALEM","sdtname":"KOTAURATLA","dtname":"ANAKAPALLI","stname":"ANDHRA PRADESH","country":"India"}},{"type":"Feature","geometry":{"type":"Point","coordinates":[82.6369652,17.6086402]},"properties":{"secretariatName":"ANNAVARAM","villageName":"ANNAVARAM","sdtname":"KOTAURATLA","dtname":"ANAKAPALLI","stname":"ANDHRA PRADESH","country":"India"}},{"type":"Feature","geometry":{"type":"Point","coordinates":[82.6275787,17.5099361]},"properties":{"secretariatName":"K.V.PURAM","villageName":"K.V.PURAM","sdtname":"KOTAURATLA","dtname":"ANAKAPALLI","stname":"ANDHRA PRADESH","country":"India"}},{"type":"Feature","geometry":{"type":"Point","coordinates":[82.6078363,17.5455187]},"properties":{"secretariatName":"BODAPALEM","villageName":"BODAPALEM","sdtname":"KOTAURATLA","dtname":"ANAKAPALLI","stname":"ANDHRA PRADESH","country":"India"}},{"type":"Feature","geometry":{"type":"Point","coordinates":[82.6059625,17.487454]},"properties":{"secretariatName":"KODAVATIPUDI","villageName":"KODAVATIPUDI","sdtname":"KOTAURATLA","dtname":"ANAKAPALLI","stname":"ANDHRA PRADESH","country":"India"}},{"type":"Feature","geometry":{"type":"Point","coordinates":[82.6027058,17.5701458]},"properties":{"secretariatName":"PAMULAVAKA","villageName":"PAMULAVAKA","sdtname":"KOTAURATLA","dtname":"ANAKAPALLI","stname":"ANDHRA PRADESH","country":"India"}},{"type":"Feature","geometry":{"type":"Point","coordinates":[82.5888695,17.4891483]},"properties":{"secretariatName":"CH.B.PALLI","villageName":"CH.B.PALLI","sdtname":"KOTAURATLA","dtname":"ANAKAPALLI","stname":"ANDHRA PRADESH","country":"India"}},{"type":"Feature","geometry":{"type":"Point","coordinates":[82.5857811,17.5114456]},"properties":{"secretariatName":"P.K.PALLI","villageName":"P.K.PALLI","sdtname":"KOTAURATLA","dtname":"ANAKAPALLI","stname":"ANDHRA PRADESH","country":"India"}},{"type":"Feature","geometry":{"type":"Point","coordinates":[82.7803323,17.6384004]},"properties":{"secretariatName":"SETTIPALEM","villageName":"SETTIPALEM","sdtname":"MAKAVARAPALEM","dtname":"ANAKAPALLI","stname":"ANDHRA PRADESH","country":"India"}},{"type":"Feature","geometry":{"type":"Point","coordinates":[82.7558787,17.5972654]},"properties":{"secretariatName":"G.VENKAPURAM","villageName":"G.VENKAPURAM","sdtname":"MAKAVARAPALEM","dtname":"ANAKAPALLI","stname":"ANDHRA PRADESH","country":"India"}},{"type":"Feature","geometry":{"type":"Point","coordinates":[82.7414888,17.6097898]},"properties":{"secretariatName":"RACHAPALLI","villageName":"RACHAPALLI","sdtname":"MAKAVARAPALEM","dtname":"ANAKAPALLI","stname":"ANDHRA PRADESH","country":"India"}},{"type":"Feature","geometry":{"type":"Point","coordinates":[82.7403931,17.6643309]},"properties":{"secretariatName":"PAPAYYAPALEM","villageName":"PAPAYYAPALEM","sdtname":"MAKAVARAPALEM","dtname":"ANAKAPALLI","stname":"ANDHRA PRADESH","country":"India"}},{"type":"Feature","geometry":{"type":"Point","coordinates":[82.7361042,17.5853605]},"properties":{"secretariatName":"G.KODURU","villageName":"G.KODURU","sdtname":"MAKAVARAPALEM","dtname":"ANAKAPALLI","stname":"ANDHRA PRADESH","country":"India"}},{"type":"Feature","geometry":{"type":"Point","coordinates":[82.7293456,17.6912123]},"properties":{"secretariatName":"TOOTIPALA","villageName":"TOOTIPALA","sdtname":"MAKAVARAPALEM","dtname":"ANAKAPALLI","stname":"ANDHRA PRADESH","country":"India"}},{"type":"Feature","geometry":{"type":"Point","coordinates":[82.7261593,17.6157565]},"properties":{"secretariatName":"TAMARAM","villageName":"TAMARAM","sdtname":"MAKAVARAPALEM","dtname":"ANAKAPALLI","stname":"ANDHRA PRADESH","country":"India"}},{"type":"Feature","geometry":{"type":"Point","coordinates":[82.7219813,17.6187023]},"properties":{"secretariatName":"MAKAVARAPALEM","villageName":"MAKAVARAPALEM","sdtname":"MAKAVARAPALEM","dtname":"ANAKAPALLI","stname":"ANDHRA PRADESH","country":"India"}},{"type":"Feature","geometry":{"type":"Point","coordinates":[82.7178752,17.63595429]},"properties":{"secretariatName":"PYDIPALA","villageName":"PYDIPALA","sdtname":"MAKAVARAPALEM","dtname":"ANAKAPALLI","stname":"ANDHRA PRADESH","country":"India"}},{"type":"Feature","geometry":{"type":"Point","coordinates":[82.71653,17.68085]},"properties":{"secretariatName":"BURUGUPALEM","villageName":"BURUGUPALEM","sdtname":"MAKAVARAPALEM","dtname":"ANAKAPALLI","stname":"ANDHRA PRADESH","country":"India"}},{"type":"Feature","geometry":{"type":"Point","coordinates":[82.713283,17.596768]},"properties":{"secretariatName":"P.P.AGRAHARAM","villageName":"P.P.AGRAHARAM","sdtname":"MAKAVARAPALEM","dtname":"ANAKAPALLI","stname":"ANDHRA PRADESH","country":"India"}},{"type":"Feature","geometry":{"type":"Point","coordinates":[82.7004344,17.643767]},"properties":{"secretariatName":"LATCHANNAPALEM","villageName":"LATCHANNAPALEM","sdtname":"MAKAVARAPALEM","dtname":"ANAKAPALLI","stname":"ANDHRA PRADESH","country":"India"}},{"type":"Feature","geometry":{"type":"Point","coordinates":[82.6981031,17.6284327]},"properties":{"secretariatName":"KONDALAGRAHARAM","villageName":"KONDALAGRAHARAM","sdtname":"MAKAVARAPALEM","dtname":"ANAKAPALLI","stname":"ANDHRA PRADESH","country":"India"}},{"type":"Feature","geometry":{"type":"Point","coordinates":[82.684393,17.605098]},"properties":{"secretariatName":"GIDUTHURU","villageName":"GIDUTHURU","sdtname":"MAKAVARAPALEM","dtname":"ANAKAPALLI","stname":"ANDHRA PRADESH","country":"India"}},{"type":"Feature","geometry":{"type":"Point","coordinates":[82.6646999,17.631052]},"properties":{"secretariatName":"VAJRAGADA","villageName":"VAJRAGADA","sdtname":"MAKAVARAPALEM","dtname":"ANAKAPALLI","stname":"ANDHRA PRADESH","country":"India"}},{"type":"Feature","geometry":{"type":"Point","coordinates":[83.0447564,17.6463356]},"properties":{"secretariatName":"T.SIRASAPALLI-2","villageName":"T.SIRASAPALLI-2","sdtname":"MUNAGAPAKA","dtname":"ANAKAPALLI","stname":"ANDHRA PRADESH","country":"India"}},{"type":"Feature","geometry":{"type":"Point","coordinates":[83.037273,17.6228147]},"properties":{"secretariatName":"RAJUPETA","villageName":"RAJUPETA","sdtname":"MUNAGAPAKA","dtname":"ANAKAPALLI","stname":"ANDHRA PRADESH","country":"India"}},{"type":"Feature","geometry":{"type":"Point","coordinates":[83.02947,17.65434833]},"properties":{"secretariatName":"T.SIRASAPALLI-1","villageName":"T.SIRASAPALLI-1","sdtname":"MUNAGAPAKA","dtname":"ANAKAPALLI","stname":"ANDHRA PRADESH","country":"India"}},{"type":"Feature","geometry":{"type":"Point","coordinates":[83.0279085,17.6046352]},"properties":{"secretariatName":"NAGAVARAM","villageName":"NAGAVARAM","sdtname":"MUNAGAPAKA","dtname":"ANAKAPALLI","stname":"ANDHRA PRADESH","country":"India"}},{"type":"Feature","geometry":{"type":"Point","coordinates":[83.0242814,17.6506601]},"properties":{"secretariatName":"PATIPALLI","villageName":"PATIPALLI","sdtname":"MUNAGAPAKA","dtname":"ANAKAPALLI","stname":"ANDHRA PRADESH","country":"India"}},{"type":"Feature","geometry":{"type":"Point","coordinates":[83.0235208,17.653904]},"properties":{"secretariatName":"THOTADA","villageName":"THOTADA","sdtname":"MUNAGAPAKA","dtname":"ANAKAPALLI","stname":"ANDHRA PRADESH","country":"India"}},{"type":"Feature","geometry":{"type":"Point","coordinates":[83.0010014,17.6159017]},"properties":{"secretariatName":"VADRAPALLI","villageName":"VADRAPALLI","sdtname":"MUNAGAPAKA","dtname":"ANAKAPALLI","stname":"ANDHRA PRADESH","country":"India"}},{"type":"Feature","geometry":{"type":"Point","coordinates":[82.9982224,17.6653656]},"properties":{"secretariatName":"NAGULAPALLI-1","villageName":"NAGULAPALLI-1","sdtname":"MUNAGAPAKA","dtname":"ANAKAPALLI","stname":"ANDHRA PRADESH","country":"India"}},{"type":"Feature","geometry":{"type":"Point","coordinates":[82.9981735,17.6647404]},"properties":{"secretariatName":"NAGULAPALLI-2","villageName":"NAGULAPALLI-2","sdtname":"MUNAGAPAKA","dtname":"ANAKAPALLI","stname":"ANDHRA PRADESH","country":"India"}},{"type":"Feature","geometry":{"type":"Point","coordinates":[82.9953851,17.6748624]},"properties":{"secretariatName":"UMMALADA","villageName":"UMMALADA","sdtname":"MUNAGAPAKA","dtname":"ANAKAPALLI","stname":"ANDHRA PRADESH","country":"India"}},{"type":"Feature","geometry":{"type":"Point","coordinates":[82.995314,17.6359708]},"properties":{"secretariatName":"MUNAGAPAKA-2","villageName":"MUNAGAPAKA-2","sdtname":"MUNAGAPAKA","dtname":"ANAKAPALLI","stname":"ANDHRA PRADESH","country":"India"}},{"type":"Feature","geometry":{"type":"Point","coordinates":[82.995303,17.635933]},"properties":{"secretariatName":"MUNAGAPAKA-1","villageName":"MUNAGAPAKA-1","sdtname":"MUNAGAPAKA","dtname":"ANAKAPALLI","stname":"ANDHRA PRADESH","country":"India"}},{"type":"Feature","geometry":{"type":"Point","coordinates":[82.9950368,17.6561079]},"properties":{"secretariatName":"VOMPOLU","villageName":"VOMPOLU","sdtname":"MUNAGAPAKA","dtname":"ANAKAPALLI","stname":"ANDHRA PRADESH","country":"India"}},{"type":"Feature","geometry":{"type":"Point","coordinates":[82.9816746,17.6463672]},"properties":{"secretariatName":"ARABUPALEM","villageName":"ARABUPALEM","sdtname":"MUNAGAPAKA","dtname":"ANAKAPALLI","stname":"ANDHRA PRADESH","country":"India"}},{"type":"Feature","geometry":{"type":"Point","coordinates":[82.9815906,17.6215344]},"properties":{"secretariatName":"THIMMARAJUPETA","villageName":"THIMMARAJUPETA","sdtname":"MUNAGAPAKA","dtname":"ANAKAPALLI","stname":"ANDHRA PRADESH","country":"India"}},{"type":"Feature","geometry":{"type":"Point","coordinates":[82.9411386,17.6111772]},"properties":{"secretariatName":"PALLAPUANANDAPURAM","villageName":"PALLAPUANANDAPURAM","sdtname":"MUNAGAPAKA","dtname":"ANAKAPALLI","stname":"ANDHRA PRADESH","country":"India"}},{"type":"Feature","geometry":{"type":"Point","coordinates":[82.929869,17.631902]},"properties":{"secretariatName":"GANTAVANIPALEM","villageName":"GANTAVANIPALEM","sdtname":"MUNAGAPAKA","dtname":"ANAKAPALLI","stname":"ANDHRA PRADESH","country":"India"}},{"type":"Feature","geometry":{"type":"Point","coordinates":[82.9280387,17.5786791]},"properties":{"secretariatName":"CHERLOPALEM","villageName":"CHERLOPALEM","sdtname":"MUNAGAPAKA","dtname":"ANAKAPALLI","stname":"ANDHRA PRADESH","country":"India"}},{"type":"Feature","geometry":{"type":"Point","coordinates":[82.9170274,17.6000516]},"properties":{"secretariatName":"CHUCHUKONDA","villageName":"CHUCHUKONDA","sdtname":"MUNAGAPAKA","dtname":"ANAKAPALLI","stname":"ANDHRA PRADESH","country":"India"}},{"type":"Feature","geometry":{"type":"Point","coordinates":[82.9157664,17.6003053]},"properties":{"secretariatName":"GANAPARTHI","villageName":"GANAPARTHI","sdtname":"MUNAGAPAKA","dtname":"ANAKAPALLI","stname":"ANDHRA PRADESH","country":"India"}},{"type":"Feature","geometry":{"type":"Point","coordinates":[82.9069496,17.5868193]},"properties":{"secretariatName":"MELUPAKA","villageName":"MELUPAKA","sdtname":"MUNAGAPAKA","dtname":"ANAKAPALLI","stname":"ANDHRA PRADESH","country":"India"}},{"type":"Feature","geometry":{"type":"Point","coordinates":[82.756795,17.3853472]},"properties":{"secretariatName":"JANAKAYYAPETA-1","villageName":"JANAKAYYAPETA-1","sdtname":"NAKKAPALLI","dtname":"ANAKAPALLI","stname":"ANDHRA PRADESH","country":"India"}},{"type":"Feature","geometry":{"type":"Point","coordinates":[82.751893,17.384531]},"properties":{"secretariatName":"PEDATEENARLA","villageName":"PEDATEENARLA","sdtname":"NAKKAPALLI","dtname":"ANAKAPALLI","stname":"ANDHRA PRADESH","country":"India"}},{"type":"Feature","geometry":{"type":"Point","coordinates":[82.73764917,17.3902032]},"properties":{"secretariatName":"JANAKAYYAPETA-2","villageName":"JANAKAYYAPETA-2","sdtname":"NAKKAPALLI","dtname":"ANAKAPALLI","stname":"ANDHRA PRADESH","country":"India"}},{"type":"Feature","geometry":{"type":"Point","coordinates":[82.7167863,17.39941067]},"properties":{"secretariatName":"UPAMAKA","villageName":"UPAMAKA","sdtname":"NAKKAPALLI","dtname":"ANAKAPALLI","stname":"ANDHRA PRADESH","country":"India"}},{"type":"Feature","geometry":{"type":"Point","coordinates":[82.715794,17.360453]},"properties":{"secretariatName":"RAJAYYAPETA","villageName":"RAJAYYAPETA","sdtname":"NAKKAPALLI","dtname":"ANAKAPALLI","stname":"ANDHRA PRADESH","country":"India"}},{"type":"Feature","geometry":{"type":"Point","coordinates":[82.71528813,17.40897237]},"properties":{"secretariatName":"NAKKAPALLI-2","villageName":"NAKKAPALLI-2","sdtname":"NAKKAPALLI","dtname":"ANAKAPALLI","stname":"ANDHRA PRADESH","country":"India"}},{"type":"Feature","geometry":{"type":"Point","coordinates":[82.7152268,17.4089284]},"properties":{"secretariatName":"NAKKAPALLI-1","villageName":"NAKKAPALLI-1","sdtname":"NAKKAPALLI","dtname":"ANAKAPALLI","stname":"ANDHRA PRADESH","country":"India"}},{"type":"Feature","geometry":{"type":"Point","coordinates":[82.7025966,17.3703074]},"properties":{"secretariatName":"CHANDANADA","villageName":"CHANDANADA","sdtname":"NAKKAPALLI","dtname":"ANAKAPALLI","stname":"ANDHRA PRADESH","country":"India"}},{"type":"Feature","geometry":{"type":"Point","coordinates":[82.687452,17.43394]},"properties":{"secretariatName":"PEDADODDIGALLU","villageName":"PEDADODDIGALLU","sdtname":"NAKKAPALLI","dtname":"ANAKAPALLI","stname":"ANDHRA PRADESH","country":"India"}},{"type":"Feature","geometry":{"type":"Point","coordinates":[82.686013,17.398675]},"properties":{"secretariatName":"KAGITHA","villageName":"KAGITHA","sdtname":"NAKKAPALLI","dtname":"ANAKAPALLI","stname":"ANDHRA PRADESH","country":"India"}},{"type":"Feature","geometry":{"type":"Point","coordinates":[82.682501,17.364658]},"properties":{"secretariatName":"AMALAPURAM","villageName":"AMALAPURAM","sdtname":"NAKKAPALLI","dtname":"ANAKAPALLI","stname":"ANDHRA PRADESH","country":"India"}},{"type":"Feature","geometry":{"type":"Point","coordinates":[82.66941,17.405497]},"properties":{"secretariatName":"CHINADODDIGALLU-1","villageName":"CHINADODDIGALLU-1","sdtname":"NAKKAPALLI","dtname":"ANAKAPALLI","stname":"ANDHRA PRADESH","country":"India"}},{"type":"Feature","geometry":{"type":"Point","coordinates":[82.669084,17.405824]},"properties":{"secretariatName":"CHINADODDIGALLU-2","villageName":"CHINADODDIGALLU-2","sdtname":"NAKKAPALLI","dtname":"ANAKAPALLI","stname":"ANDHRA PRADESH","country":"India"}},{"type":"Feature","geometry":{"type":"Point","coordinates":[82.663028,17.3404258]},"properties":{"secretariatName":"D.L.PURAM","villageName":"D.L.PURAM","sdtname":"NAKKAPALLI","dtname":"ANAKAPALLI","stname":"ANDHRA PRADESH","country":"India"}},{"type":"Feature","geometry":{"type":"Point","coordinates":[82.662353,17.3892484]},"properties":{"secretariatName":"VEMPADU","villageName":"VEMPADU","sdtname":"NAKKAPALLI","dtname":"ANAKAPALLI","stname":"ANDHRA PRADESH","country":"India"}},{"type":"Feature","geometry":{"type":"Point","coordinates":[82.659577,17.444913]},"properties":{"secretariatName":"GULLIPADU","villageName":"GULLIPADU","sdtname":"NAKKAPALLI","dtname":"ANAKAPALLI","stname":"ANDHRA PRADESH","country":"India"}},{"type":"Feature","geometry":{"type":"Point","coordinates":[82.6431112,17.3896427]},"properties":{"secretariatName":"UDDANDAPURAM","villageName":"UDDANDAPURAM","sdtname":"NAKKAPALLI","dtname":"ANAKAPALLI","stname":"ANDHRA PRADESH","country":"India"}},{"type":"Feature","geometry":{"type":"Point","coordinates":[82.638104,17.314976]},"properties":{"secretariatName":"BANGARAMMAPETA","villageName":"BANGARAMMAPETA","sdtname":"NAKKAPALLI","dtname":"ANAKAPALLI","stname":"ANDHRA PRADESH","country":"India"}},{"type":"Feature","geometry":{"type":"Point","coordinates":[82.6380467,17.4350047]},"properties":{"secretariatName":"DOSALAPADU","villageName":"DOSALAPADU","sdtname":"NAKKAPALLI","dtname":"ANAKAPALLI","stname":"ANDHRA PRADESH","country":"India"}},{"type":"Feature","geometry":{"type":"Point","coordinates":[82.6209669,17.3915979]},"properties":{"secretariatName":"GODICHERLA","villageName":"GODICHERLA","sdtname":"NAKKAPALLI","dtname":"ANAKAPALLI","stname":"ANDHRA PRADESH","country":"India"}},{"type":"Feature","geometry":{"type":"Point","coordinates":[82.6123805,17.4186272]},"properties":{"secretariatName":"DONKADA","villageName":"DONKADA","sdtname":"NAKKAPALLI","dtname":"ANAKAPALLI","stname":"ANDHRA PRADESH","country":"India"}},{"type":"Feature","geometry":{"type":"Point","coordinates":[82.59608,17.38472]},"properties":{"secretariatName":"DEVAVARAM","villageName":"DEVAVARAM","sdtname":"NAKKAPALLI","dtname":"ANAKAPALLI","stname":"ANDHRA PRADESH","country":"India"}},{"type":"Feature","geometry":{"type":"Point","coordinates":[82.6486343,17.683779]},"properties":{"secretariatName":"CHETTUPALLI-1","villageName":"CHETTUPALLI-1","sdtname":"NARSIPATNAM","dtname":"ANAKAPALLI","stname":"ANDHRA PRADESH","country":"India"}},{"type":"Feature","geometry":{"type":"Point","coordinates":[82.6466061,17.6837406]},"properties":{"secretariatName":"CHETTUPALLI-2","villageName":"CHETTUPALLI-2","sdtname":"NARSIPATNAM","dtname":"ANAKAPALLI","stname":"ANDHRA PRADESH","country":"India"}},{"type":"Feature","geometry":{"type":"Point","coordinates":[82.6318553,17.6301246]},"properties":{"secretariatName":"DHARMASAGARAM","villageName":"DHARMASAGARAM","sdtname":"NARSIPATNAM","dtname":"ANAKAPALLI","stname":"ANDHRA PRADESH","country":"India"}},{"type":"Feature","geometry":{"type":"Point","coordinates":[82.6191033,17.697576]},"properties":{"secretariatName":"GURANDORAPALEM","villageName":"GURANDORAPALEM","sdtname":"NARSIPATNAM","dtname":"ANAKAPALLI","stname":"ANDHRA PRADESH","country":"India"}},{"type":"Feature","geometry":{"type":"Point","coordinates":[82.611959,17.6085067]},"properties":{"secretariatName":"VEMULAPUDI-1","villageName":"VEMULAPUDI-1","sdtname":"NARSIPATNAM","dtname":"ANAKAPALLI","stname":"ANDHRA PRADESH","country":"India"}},{"type":"Feature","geometry":{"type":"Point","coordinates":[82.6075618,17.5839607]},"properties":{"secretariatName":"YERAKANAPALEM","villageName":"YERAKANAPALEM","sdtname":"NARSIPATNAM","dtname":"ANAKAPALLI","stname":"ANDHRA PRADESH","country":"India"}},{"type":"Feature","geometry":{"type":"Point","coordinates":[82.5945342,17.7127301]},"properties":{"secretariatName":"GABBADA","villageName":"GABBADA","sdtname":"NARSIPATNAM","dtname":"ANAKAPALLI","stname":"ANDHRA PRADESH","country":"India"}},{"type":"Feature","geometry":{"type":"Point","coordinates":[82.5895717,17.5848612]},"properties":{"secretariatName":"AMALAPURAM","villageName":"AMALAPURAM","sdtname":"NARSIPATNAM","dtname":"ANAKAPALLI","stname":"ANDHRA PRADESH","country":"India"}},{"type":"Feature","geometry":{"type":"Point","coordinates":[82.5742013,17.6001867]},"properties":{"secretariatName":"VEMULAPUDI-2","villageName":"VEMULAPUDI-2","sdtname":"NARSIPATNAM","dtname":"ANAKAPALLI","stname":"ANDHRA PRADESH","country":"India"}},{"type":"Feature","geometry":{"type":"Point","coordinates":[82.5887797,17.5515598]},"properties":{"secretariatName":"CHERLOPALEM","villageName":"CHERLOPALEM","sdtname":"NATHAVARAM","dtname":"ANAKAPALLI","stname":"ANDHRA PRADESH","country":"India"}},{"type":"Feature","geometry":{"type":"Point","coordinates":[82.562905,17.6002158]},"properties":{"secretariatName":"M.BENNAVARAM","villageName":"M.BENNAVARAM","sdtname":"NATHAVARAM","dtname":"ANAKAPALLI","stname":"ANDHRA PRADESH","country":"India"}},{"type":"Feature","geometry":{"type":"Point","coordinates":[82.558316,17.5864294]},"properties":{"secretariatName":"D.YERRAVARAM","villageName":"D.YERRAVARAM","sdtname":"NATHAVARAM","dtname":"ANAKAPALLI","stname":"ANDHRA PRADESH","country":"India"}},{"type":"Feature","geometry":{"type":"Point","coordinates":[82.5440025,17.5839759]},"properties":{"secretariatName":"Y.D.PETA","villageName":"Y.D.PETA","sdtname":"NATHAVARAM","dtname":"ANAKAPALLI","stname":"ANDHRA PRADESH","country":"India"}},{"type":"Feature","geometry":{"type":"Point","coordinates":[82.5311373,17.5288099]},"properties":{"secretariatName":"M.B.PATNAM","villageName":"M.B.PATNAM","sdtname":"NATHAVARAM","dtname":"ANAKAPALLI","stname":"ANDHRA PRADESH","country":"India"}},{"type":"Feature","geometry":{"type":"Point","coordinates":[82.52446,17.545792]},"properties":{"secretariatName":"SRUNGAVARAM","villageName":"SRUNGAVARAM","sdtname":"NATHAVARAM","dtname":"ANAKAPALLI","stname":"ANDHRA PRADESH","country":"India"}},{"type":"Feature","geometry":{"type":"Point","coordinates":[82.5196354,17.5111979]},"properties":{"secretariatName":"GANNAVARAM","villageName":"GANNAVARAM","sdtname":"NATHAVARAM","dtname":"ANAKAPALLI","stname":"ANDHRA PRADESH","country":"India"}},{"type":"Feature","geometry":{"type":"Point","coordinates":[82.4936289,17.5899833]},"properties":{"secretariatName":"VALASAMPETA","villageName":"VALASAMPETA","sdtname":"NATHAVARAM","dtname":"ANAKAPALLI","stname":"ANDHRA PRADESH","country":"India"}},{"type":"Feature","geometry":{"type":"Point","coordinates":[82.4900549,17.532423]},"properties":{"secretariatName":"MANYAPURATLA","villageName":"MANYAPURATLA","sdtname":"NATHAVARAM","dtname":"ANAKAPALLI","stname":"ANDHRA PRADESH","country":"India"}},{"type":"Feature","geometry":{"type":"Point","coordinates":[82.4893466,17.5665152]},"properties":{"secretariatName":"NATHAVARAM-1","villageName":"NATHAVARAM-1","sdtname":"NATHAVARAM","dtname":"ANAKAPALLI","stname":"ANDHRA PRADESH","country":"India"}},{"type":"Feature","geometry":{"type":"Point","coordinates":[82.4893466,17.5665151]},"properties":{"secretariatName":"NATHAVARAM-2","villageName":"NATHAVARAM-2","sdtname":"NATHAVARAM","dtname":"ANAKAPALLI","stname":"ANDHRA PRADESH","country":"India"}},{"type":"Feature","geometry":{"type":"Point","coordinates":[82.4650263,17.5940918]},"properties":{"secretariatName":"CHAMMACHINTA","villageName":"CHAMMACHINTA","sdtname":"NATHAVARAM","dtname":"ANAKAPALLI","stname":"ANDHRA PRADESH","country":"India"}},{"type":"Feature","geometry":{"type":"Point","coordinates":[82.4569441,17.5586009]},"properties":{"secretariatName":"GUMMIDIGONDA","villageName":"GUMMIDIGONDA","sdtname":"NATHAVARAM","dtname":"ANAKAPALLI","stname":"ANDHRA PRADESH","country":"India"}},{"type":"Feature","geometry":{"type":"Point","coordinates":[82.4560819,17.5231202]},"properties":{"secretariatName":"GOLUGONDAPETA","villageName":"GOLUGONDAPETA","sdtname":"NATHAVARAM","dtname":"ANAKAPALLI","stname":"ANDHRA PRADESH","country":"India"}},{"type":"Feature","geometry":{"type":"Point","coordinates":[82.4359144,17.5069813]},"properties":{"secretariatName":"GUNUPUDI","villageName":"GUNUPUDI","sdtname":"NATHAVARAM","dtname":"ANAKAPALLI","stname":"ANDHRA PRADESH","country":"India"}},{"type":"Feature","geometry":{"type":"Point","coordinates":[82.4307182,17.4892438]},"properties":{"secretariatName":"P.K.GUDEM","villageName":"P.K.GUDEM","sdtname":"NATHAVARAM","dtname":"ANAKAPALLI","stname":"ANDHRA PRADESH","country":"India"}},{"type":"Feature","geometry":{"type":"Point","coordinates":[82.387424,17.5300196]},"properties":{"secretariatName":"SARUGUDU","villageName":"SARUGUDU","sdtname":"NATHAVARAM","dtname":"ANAKAPALLI","stname":"ANDHRA PRADESH","country":"India"}},{"type":"Feature","geometry":{"type":"Point","coordinates":[83.1155831,17.5964202]},"properties":{"secretariatName":"KALAPAKA","villageName":"KALAPAKA","sdtname":"PARAWADA","dtname":"ANAKAPALLI","stname":"ANDHRA PRADESH","country":"India"}},{"type":"Feature","geometry":{"type":"Point","coordinates":[83.1000554,17.7011499]},"properties":{"secretariatName":"KANNURU","villageName":"KANNURU","sdtname":"PARAWADA","dtname":"ANAKAPALLI","stname":"ANDHRA PRADESH","country":"India"}},{"type":"Feature","geometry":{"type":"Point","coordinates":[83.0995261,17.634202]},"properties":{"secretariatName":"GORLIVANIPALEM","villageName":"GORLIVANIPALEM","sdtname":"PARAWADA","dtname":"ANAKAPALLI","stname":"ANDHRA PRADESH","country":"India"}},{"type":"Feature","geometry":{"type":"Point","coordinates":[83.099348,17.7179966]},"properties":{"secretariatName":"PEDAMUSHIDIVADA","villageName":"PEDAMUSHIDIVADA","sdtname":"PARAWADA","dtname":"ANAKAPALLI","stname":"ANDHRA PRADESH","country":"India"}},{"type":"Feature","geometry":{"type":"Point","coordinates":[83.088842,17.6141478]},"properties":{"secretariatName":"VENNELAPALEM","villageName":"VENNELAPALEM","sdtname":"PARAWADA","dtname":"ANAKAPALLI","stname":"ANDHRA PRADESH","country":"India"}},{"type":"Feature","geometry":{"type":"Point","coordinates":[83.088805,17.572914]},"properties":{"secretariatName":"VADACHEEPURUPALLI-2","villageName":"VADACHEEPURUPALLI-2","sdtname":"PARAWADA","dtname":"ANAKAPALLI","stname":"ANDHRA PRADESH","country":"India"}},{"type":"Feature","geometry":{"type":"Point","coordinates":[83.0861092,17.539326]},"properties":{"secretariatName":"MUTYALAMMAPALEM","villageName":"MUTYALAMMAPALEM","sdtname":"PARAWADA","dtname":"ANAKAPALLI","stname":"ANDHRA PRADESH","country":"India"}},{"type":"Feature","geometry":{"type":"Point","coordinates":[83.0859173,17.6299185]},"properties":{"secretariatName":"PARAVADA-2","villageName":"PARAVADA-2","sdtname":"PARAWADA","dtname":"ANAKAPALLI","stname":"ANDHRA PRADESH","country":"India"}},{"type":"Feature","geometry":{"type":"Point","coordinates":[83.0835806,17.5602797]},"properties":{"secretariatName":"VADACHEEPURUPALLI-1","villageName":"VADACHEEPURUPALLI-1","sdtname":"PARAWADA","dtname":"ANAKAPALLI","stname":"ANDHRA PRADESH","country":"India"}},{"type":"Feature","geometry":{"type":"Point","coordinates":[83.0797266,17.55712333]},"properties":{"secretariatName":"NAIDUPALEM","villageName":"NAIDUPALEM","sdtname":"PARAWADA","dtname":"ANAKAPALLI","stname":"ANDHRA PRADESH","country":"India"}},{"type":"Feature","geometry":{"type":"Point","coordinates":[83.077536,17.6286133]},"properties":{"secretariatName":"PARAVADA-1","villageName":"PARAVADA-1","sdtname":"PARAWADA","dtname":"ANAKAPALLI","stname":"ANDHRA PRADESH","country":"India"}},{"type":"Feature","geometry":{"type":"Point","coordinates":[83.0703,17.6474]},"properties":{"secretariatName":"THANAM-1","villageName":"THANAM-1","sdtname":"PARAWADA","dtname":"ANAKAPALLI","stname":"ANDHRA PRADESH","country":"India"}},{"type":"Feature","geometry":{"type":"Point","coordinates":[83.070243,17.594841]},"properties":{"secretariatName":"RAVADA","villageName":"RAVADA","sdtname":"PARAWADA","dtname":"ANAKAPALLI","stname":"ANDHRA PRADESH","country":"India"}},{"type":"Feature","geometry":{"type":"Point","coordinates":[83.060639,17.632101]},"properties":{"secretariatName":"THANAM-2","villageName":"THANAM-2","sdtname":"PARAWADA","dtname":"ANAKAPALLI","stname":"ANDHRA PRADESH","country":"India"}},{"type":"Feature","geometry":{"type":"Point","coordinates":[82.6135,17.330258]},"properties":{"secretariatName":"GOPALAPATNAM","villageName":"GOPALAPATNAM","sdtname":"PAYAKARAOPETA","dtname":"ANAKAPALLI","stname":"ANDHRA PRADESH","country":"India"}},{"type":"Feature","geometry":{"type":"Point","coordinates":[82.6096886,17.3002147]},"properties":{"secretariatName":"PENTAKOTA","villageName":"PENTAKOTA","sdtname":"PAYAKARAOPETA","dtname":"ANAKAPALLI","stname":"ANDHRA PRADESH","country":"India"}},{"type":"Feature","geometry":{"type":"Point","coordinates":[82.6002473,17.3640547]},"properties":{"secretariatName":"GUNTAPALLI","villageName":"GUNTAPALLI","sdtname":"PAYAKARAOPETA","dtname":"ANAKAPALLI","stname":"ANDHRA PRADESH","country":"India"}},{"type":"Feature","geometry":{"type":"Point","coordinates":[82.5976156,17.3038022]},"properties":{"secretariatName":"RAJAVARAM","villageName":"RAJAVARAM","sdtname":"PAYAKARAOPETA","dtname":"ANAKAPALLI","stname":"ANDHRA PRADESH","country":"India"}},{"type":"Feature","geometry":{"type":"Point","coordinates":[82.592848,17.319961]},"properties":{"secretariatName":"MASAHEBPETA","villageName":"MASAHEBPETA","sdtname":"PAYAKARAOPETA","dtname":"ANAKAPALLI","stname":"ANDHRA PRADESH","country":"India"}},{"type":"Feature","geometry":{"type":"Point","coordinates":[82.590898,17.3742101]},"properties":{"secretariatName":"NAMAVARAM","villageName":"NAMAVARAM","sdtname":"PAYAKARAOPETA","dtname":"ANAKAPALLI","stname":"ANDHRA PRADESH","country":"India"}},{"type":"Feature","geometry":{"type":"Point","coordinates":[82.58925833,17.32416333]},"properties":{"secretariatName":"SATYAVARAM-2","villageName":"SATYAVARAM-2","sdtname":"PAYAKARAOPETA","dtname":"ANAKAPALLI","stname":"ANDHRA PRADESH","country":"India"}},{"type":"Feature","geometry":{"type":"Point","coordinates":[82.5877185,17.3475671]},"properties":{"secretariatName":"MANGAVARAM","villageName":"MANGAVARAM","sdtname":"PAYAKARAOPETA","dtname":"ANAKAPALLI","stname":"ANDHRA PRADESH","country":"India"}},{"type":"Feature","geometry":{"type":"Point","coordinates":[82.58441,17.32783]},"properties":{"secretariatName":"SATYAVARAM-1","villageName":"SATYAVARAM-1","sdtname":"PAYAKARAOPETA","dtname":"ANAKAPALLI","stname":"ANDHRA PRADESH","country":"India"}},{"type":"Feature","geometry":{"type":"Point","coordinates":[82.5841,17.28559]},"properties":{"secretariatName":"VENKATANAGARAM","villageName":"VENKATANAGARAM","sdtname":"PAYAKARAOPETA","dtname":"ANAKAPALLI","stname":"ANDHRA PRADESH","country":"India"}},{"type":"Feature","geometry":{"type":"Point","coordinates":[82.57889202,17.35283008]},"properties":{"secretariatName":"ARATLAKOTA","villageName":"ARATLAKOTA","sdtname":"PAYAKARAOPETA","dtname":"ANAKAPALLI","stname":"ANDHRA PRADESH","country":"India"}},{"type":"Feature","geometry":{"type":"Point","coordinates":[82.5758547,17.31645278]},"properties":{"secretariatName":"SRIRAMPURAM","villageName":"SRIRAMPURAM","sdtname":"PAYAKARAOPETA","dtname":"ANAKAPALLI","stname":"ANDHRA PRADESH","country":"India"}},{"type":"Feature","geometry":{"type":"Point","coordinates":[82.5743982,17.3760667]},"properties":{"secretariatName":"P.L.PURAM","villageName":"P.L.PURAM","sdtname":"PAYAKARAOPETA","dtname":"ANAKAPALLI","stname":"ANDHRA PRADESH","country":"India"}},{"type":"Feature","geometry":{"type":"Point","coordinates":[82.564868,17.335763]},"properties":{"secretariatName":"P.R.B.PURAM","villageName":"P.R.B.PURAM","sdtname":"PAYAKARAOPETA","dtname":"ANAKAPALLI","stname":"ANDHRA PRADESH","country":"India"}},{"type":"Feature","geometry":{"type":"Point","coordinates":[82.5614869,17.3149869]},"properties":{"secretariatName":"S.NARSAPURAM","villageName":"S.NARSAPURAM","sdtname":"PAYAKARAOPETA","dtname":"ANAKAPALLI","stname":"ANDHRA PRADESH","country":"India"}},{"type":"Feature","geometry":{"type":"Point","coordinates":[82.5605285,17.2755129]},"properties":{"secretariatName":"KUMARAPURAM","villageName":"KUMARAPURAM","sdtname":"PAYAKARAOPETA","dtname":"ANAKAPALLI","stname":"ANDHRA PRADESH","country":"India"}},{"type":"Feature","geometry":{"type":"Point","coordinates":[82.5594971,17.3619045]},"properties":{"secretariatName":"PAYAKARAOPETA-1","villageName":"PAYAKARAOPETA-1","sdtname":"PAYAKARAOPETA","dtname":"ANAKAPALLI","stname":"ANDHRA PRADESH","country":"India"}},{"type":"Feature","geometry":{"type":"Point","coordinates":[82.5547491,17.3624051]},"properties":{"secretariatName":"PAYAKARAOPETA-2","villageName":"PAYAKARAOPETA-2","sdtname":"PAYAKARAOPETA","dtname":"ANAKAPALLI","stname":"ANDHRA PRADESH","country":"India"}},{"type":"Feature","geometry":{"type":"Point","coordinates":[82.5529062,17.3639003]},"properties":{"secretariatName":"PAYAKARAOPETA-3","villageName":"PAYAKARAOPETA-3","sdtname":"PAYAKARAOPETA","dtname":"ANAKAPALLI","stname":"ANDHRA PRADESH","country":"India"}},{"type":"Feature","geometry":{"type":"Point","coordinates":[82.5527914,17.3674548]},"properties":{"secretariatName":"PAYAKARAOPETA-5","villageName":"PAYAKARAOPETA-5","sdtname":"PAYAKARAOPETA","dtname":"ANAKAPALLI","stname":"ANDHRA PRADESH","country":"India"}},{"type":"Feature","geometry":{"type":"Point","coordinates":[82.5507441,17.363448]},"properties":{"secretariatName":"PAYAKARAOPETA-4","villageName":"PAYAKARAOPETA-4","sdtname":"PAYAKARAOPETA","dtname":"ANAKAPALLI","stname":"ANDHRA PRADESH","country":"India"}},{"type":"Feature","geometry":{"type":"Point","coordinates":[82.5431462,17.2606891]},"properties":{"secretariatName":"PALMANPETA","villageName":"PALMANPETA","sdtname":"PAYAKARAOPETA","dtname":"ANAKAPALLI","stname":"ANDHRA PRADESH","country":"India"}},{"type":"Feature","geometry":{"type":"Point","coordinates":[82.541955,17.312098]},"properties":{"secretariatName":"PALTHERU-1","villageName":"PALTHERU-1","sdtname":"PAYAKARAOPETA","dtname":"ANAKAPALLI","stname":"ANDHRA PRADESH","country":"India"}},{"type":"Feature","geometry":{"type":"Point","coordinates":[82.541459,17.317277]},"properties":{"secretariatName":"PALTHERU-2","villageName":"PALTHERU-2","sdtname":"PAYAKARAOPETA","dtname":"ANAKAPALLI","stname":"ANDHRA PRADESH","country":"India"}},{"type":"Feature","geometry":{"type":"Point","coordinates":[82.5341312,17.2841346]},"properties":{"secretariatName":"EDATAM","villageName":"EDATAM","sdtname":"PAYAKARAOPETA","dtname":"ANAKAPALLI","stname":"ANDHRA PRADESH","country":"India"}},{"type":"Feature","geometry":{"type":"Point","coordinates":[82.96099,17.492458]},"properties":{"secretariatName":"LALAMKODURU","villageName":"LALAMKODURU","sdtname":"RAMBILLI","dtname":"ANAKAPALLI","stname":"ANDHRA PRADESH","country":"India"}},{"type":"Feature","geometry":{"type":"Point","coordinates":[82.9405766,17.5356496]},"properties":{"secretariatName":"HARIPURAM","villageName":"HARIPURAM","sdtname":"RAMBILLI","dtname":"ANAKAPALLI","stname":"ANDHRA PRADESH","country":"India"}},{"type":"Feature","geometry":{"type":"Point","coordinates":[82.931971,17.479365]},"properties":{"secretariatName":"Z.CHINTUVA","villageName":"Z.CHINTUVA","sdtname":"RAMBILLI","dtname":"ANAKAPALLI","stname":"ANDHRA PRADESH","country":"India"}},{"type":"Feature","geometry":{"type":"Point","coordinates":[82.9316317,17.4639474]},"properties":{"secretariatName":"RAMBILLI","villageName":"RAMBILLI","sdtname":"RAMBILLI","dtname":"ANAKAPALLI","stname":"ANDHRA PRADESH","country":"India"}},{"type":"Feature","geometry":{"type":"Point","coordinates":[82.930828,17.5136102]},"properties":{"secretariatName":"RAJAKODURU","villageName":"RAJAKODURU","sdtname":"RAMBILLI","dtname":"ANAKAPALLI","stname":"ANDHRA PRADESH","country":"India"}},{"type":"Feature","geometry":{"type":"Point","coordinates":[82.924205,17.493111]},"properties":{"secretariatName":"VELCHURU","villageName":"VELCHURU","sdtname":"RAMBILLI","dtname":"ANAKAPALLI","stname":"ANDHRA PRADESH","country":"India"}},{"type":"Feature","geometry":{"type":"Point","coordinates":[82.9177945,17.5273293]},"properties":{"secretariatName":"PANCHADARLA","villageName":"PANCHADARLA","sdtname":"RAMBILLI","dtname":"ANAKAPALLI","stname":"ANDHRA PRADESH","country":"India"}},{"type":"Feature","geometry":{"type":"Point","coordinates":[82.915843,17.454828]},"properties":{"secretariatName":"GOVINDAPALEM","villageName":"GOVINDAPALEM","sdtname":"RAMBILLI","dtname":"ANAKAPALLI","stname":"ANDHRA PRADESH","country":"India"}},{"type":"Feature","geometry":{"type":"Point","coordinates":[82.9146081,17.4814004]},"properties":{"secretariatName":"PEDAKALAVALAPALLI","villageName":"PEDAKALAVALAPALLI","sdtname":"RAMBILLI","dtname":"ANAKAPALLI","stname":"ANDHRA PRADESH","country":"India"}},{"type":"Feature","geometry":{"type":"Point","coordinates":[82.909783,17.445192]},"properties":{"secretariatName":"NARASAPURAM","villageName":"NARASAPURAM","sdtname":"RAMBILLI","dtname":"ANAKAPALLI","stname":"ANDHRA PRADESH","country":"India"}},{"type":"Feature","geometry":{"type":"Point","coordinates":[82.905555,17.550317]},"properties":{"secretariatName":"GOKIVADA","villageName":"GOKIVADA","sdtname":"RAMBILLI","dtname":"ANAKAPALLI","stname":"ANDHRA PRADESH","country":"India"}},{"type":"Feature","geometry":{"type":"Point","coordinates":[82.9045317,17.4621617]},"properties":{"secretariatName":"KOPPUGONDUPALEM","villageName":"KOPPUGONDUPALEM","sdtname":"RAMBILLI","dtname":"ANAKAPALLI","stname":"ANDHRA PRADESH","country":"India"}},{"type":"Feature","geometry":{"type":"Point","coordinates":[82.894894,17.434672]},"properties":{"secretariatName":"KOTHAPATNAM","villageName":"KOTHAPATNAM","sdtname":"RAMBILLI","dtname":"ANAKAPALLI","stname":"ANDHRA PRADESH","country":"India"}},{"type":"Feature","geometry":{"type":"Point","coordinates":[82.8942489,17.5294802]},"properties":{"secretariatName":"MAMIDIVADA","villageName":"MAMIDIVADA","sdtname":"RAMBILLI","dtname":"ANAKAPALLI","stname":"ANDHRA PRADESH","country":"India"}},{"type":"Feature","geometry":{"type":"Point","coordinates":[82.875363,17.496144]},"properties":{"secretariatName":"MURAKADA","villageName":"MURAKADA","sdtname":"RAMBILLI","dtname":"ANAKAPALLI","stname":"ANDHRA PRADESH","country":"India"}},{"type":"Feature","geometry":{"type":"Point","coordinates":[82.8722908,17.5053781]},"properties":{"secretariatName":"KATTUBOLU","villageName":"KATTUBOLU","sdtname":"RAMBILLI","dtname":"ANAKAPALLI","stname":"ANDHRA PRADESH","country":"India"}},{"type":"Feature","geometry":{"type":"Point","coordinates":[82.8713655,17.5111233]},"properties":{"secretariatName":"DIMILI","villageName":"DIMILI","sdtname":"RAMBILLI","dtname":"ANAKAPALLI","stname":"ANDHRA PRADESH","country":"India"}},{"type":"Feature","geometry":{"type":"Point","coordinates":[82.816828,17.743865]},"properties":{"secretariatName":"GOMPA","villageName":"GOMPA","sdtname":"RAVIKAMATHAM","dtname":"ANAKAPALLI","stname":"ANDHRA PRADESH","country":"India"}},{"type":"Feature","geometry":{"type":"Point","coordinates":[82.8166988,17.7800944]},"properties":{"secretariatName":"GUDIVADA","villageName":"GUDIVADA","sdtname":"RAVIKAMATHAM","dtname":"ANAKAPALLI","stname":"ANDHRA PRADESH","country":"India"}},{"type":"Feature","geometry":{"type":"Point","coordinates":[82.8056612,17.6883324]},"properties":{"secretariatName":"THOTAKURAPALEM","villageName":"THOTAKURAPALEM","sdtname":"RAVIKAMATHAM","dtname":"ANAKAPALLI","stname":"ANDHRA PRADESH","country":"India"}},{"type":"Feature","geometry":{"type":"Point","coordinates":[82.8034539,17.7942249]},"properties":{"secretariatName":"RAVIKAMATHAM","villageName":"RAVIKAMATHAM","sdtname":"RAVIKAMATHAM","dtname":"ANAKAPALLI","stname":"ANDHRA PRADESH","country":"India"}},{"type":"Feature","geometry":{"type":"Point","coordinates":[82.8032422,17.7411895]},"properties":{"secretariatName":"GUDDIPA","villageName":"GUDDIPA","sdtname":"RAVIKAMATHAM","dtname":"ANAKAPALLI","stname":"ANDHRA PRADESH","country":"India"}},{"type":"Feature","geometry":{"type":"Point","coordinates":[82.797698,17.724885]},"properties":{"secretariatName":"TATTIBANDA","villageName":"TATTIBANDA","sdtname":"RAVIKAMATHAM","dtname":"ANAKAPALLI","stname":"ANDHRA PRADESH","country":"India"}},{"type":"Feature","geometry":{"type":"Point","coordinates":[82.795664,17.7741599]},"properties":{"secretariatName":"MARUPAKA","villageName":"MARUPAKA","sdtname":"RAVIKAMATHAM","dtname":"ANAKAPALLI","stname":"ANDHRA PRADESH","country":"India"}},{"type":"Feature","geometry":{"type":"Point","coordinates":[82.7857326,17.8072131]},"properties":{"secretariatName":"CHINAPACHILA","villageName":"CHINAPACHILA","sdtname":"RAVIKAMATHAM","dtname":"ANAKAPALLI","stname":"ANDHRA PRADESH","country":"India"}},{"type":"Feature","geometry":{"type":"Point","coordinates":[82.7852625,17.7873447]},"properties":{"secretariatName":"GANIKAM","villageName":"GANIKAM","sdtname":"RAVIKAMATHAM","dtname":"ANAKAPALLI","stname":"ANDHRA PRADESH","country":"India"}},{"type":"Feature","geometry":{"type":"Point","coordinates":[82.784578,17.821995]},"properties":{"secretariatName":"KOMIRA","villageName":"KOMIRA","sdtname":"RAVIKAMATHAM","dtname":"ANAKAPALLI","stname":"ANDHRA PRADESH","country":"India"}},{"type":"Feature","geometry":{"type":"Point","coordinates":[82.781543,17.784436]},"properties":{"secretariatName":"MEDIVADA","villageName":"MEDIVADA","sdtname":"RAVIKAMATHAM","dtname":"ANAKAPALLI","stname":"ANDHRA PRADESH","country":"India"}},{"type":"Feature","geometry":{"type":"Point","coordinates":[82.7610134,17.7725473]},"properties":{"secretariatName":"P.PONNAVAOLU","villageName":"P.PONNAVAOLU","sdtname":"RAVIKAMATHAM","dtname":"ANAKAPALLI","stname":"ANDHRA PRADESH","country":"India"}},{"type":"Feature","geometry":{"type":"Point","coordinates":[82.74334,17.773054]},"properties":{"secretariatName":"T.ARJAPURAM-1","villageName":"T.ARJAPURAM-1","sdtname":"RAVIKAMATHAM","dtname":"ANAKAPALLI","stname":"ANDHRA PRADESH","country":"India"}},{"type":"Feature","geometry":{"type":"Point","coordinates":[82.743197,17.77287]},"properties":{"secretariatName":"T.ARJAPURAM-2","villageName":"T.ARJAPURAM-2","sdtname":"RAVIKAMATHAM","dtname":"ANAKAPALLI","stname":"ANDHRA PRADESH","country":"India"}},{"type":"Feature","geometry":{"type":"Point","coordinates":[82.72289,17.760235]},"properties":{"secretariatName":"DONDAPUDI","villageName":"DONDAPUDI","sdtname":"RAVIKAMATHAM","dtname":"ANAKAPALLI","stname":"ANDHRA PRADESH","country":"India"}},{"type":"Feature","geometry":{"type":"Point","coordinates":[82.717363,17.7828683]},"properties":{"secretariatName":"Z.BHENNAVARAM","villageName":"Z.BHENNAVARAM","sdtname":"RAVIKAMATHAM","dtname":"ANAKAPALLI","stname":"ANDHRA PRADESH","country":"India"}},{"type":"Feature","geometry":{"type":"Point","coordinates":[82.70410119,17.72221156]},"properties":{"secretariatName":"KANNAMPETA","villageName":"KANNAMPETA","sdtname":"RAVIKAMATHAM","dtname":"ANAKAPALLI","stname":"ANDHRA PRADESH","country":"India"}},{"type":"Feature","geometry":{"type":"Point","coordinates":[82.69759151,17.75056906]},"properties":{"secretariatName":"KOTHAKOTA-3","villageName":"KOTHAKOTA-3","sdtname":"RAVIKAMATHAM","dtname":"ANAKAPALLI","stname":"ANDHRA PRADESH","country":"India"}},{"type":"Feature","geometry":{"type":"Point","coordinates":[82.6975708,17.7505868]},"properties":{"secretariatName":"KOTHAKOTA-2","villageName":"KOTHAKOTA-2","sdtname":"RAVIKAMATHAM","dtname":"ANAKAPALLI","stname":"ANDHRA PRADESH","country":"India"}},{"type":"Feature","geometry":{"type":"Point","coordinates":[82.6975708,17.7505868]},"properties":{"secretariatName":"KOTHAKOTA-1","villageName":"KOTHAKOTA-1","sdtname":"RAVIKAMATHAM","dtname":"ANAKAPALLI","stname":"ANDHRA PRADESH","country":"India"}},{"type":"Feature","geometry":{"type":"Point","coordinates":[82.6965033,17.779593]},"properties":{"secretariatName":"Z.KOTHAPATNAM","villageName":"Z.KOTHAPATNAM","sdtname":"RAVIKAMATHAM","dtname":"ANAKAPALLI","stname":"ANDHRA PRADESH","country":"India"}},{"type":"Feature","geometry":{"type":"Point","coordinates":[82.6912425,17.7962847]},"properties":{"secretariatName":"CHEEMALAPADU","villageName":"CHEEMALAPADU","sdtname":"RAVIKAMATHAM","dtname":"ANAKAPALLI","stname":"ANDHRA PRADESH","country":"India"}},{"type":"Feature","geometry":{"type":"Point","coordinates":[82.738858,17.706446]},"properties":{"secretariatName":"GUNDUBADU","villageName":"GUNDUBADU","sdtname":"ROLUGUNTA","dtname":"ANAKAPALLI","stname":"ANDHRA PRADESH","country":"India"}},{"type":"Feature","geometry":{"type":"Point","coordinates":[82.72138,17.70966]},"properties":{"secretariatName":"JAGGAMPETA","villageName":"JAGGAMPETA","sdtname":"ROLUGUNTA","dtname":"ANAKAPALLI","stname":"ANDHRA PRADESH","country":"India"}},{"type":"Feature","geometry":{"type":"Point","coordinates":[82.7026177,17.6816845]},"properties":{"secretariatName":"JANAKIRAMPURAM","villageName":"JANAKIRAMPURAM","sdtname":"ROLUGUNTA","dtname":"ANAKAPALLI","stname":"ANDHRA PRADESH","country":"India"}},{"type":"Feature","geometry":{"type":"Point","coordinates":[82.6914639,17.6694806]},"properties":{"secretariatName":"KUSARLAPUDI","villageName":"KUSARLAPUDI","sdtname":"ROLUGUNTA","dtname":"ANAKAPALLI","stname":"ANDHRA PRADESH","country":"India"}},{"type":"Feature","geometry":{"type":"Point","coordinates":[82.6898191,17.7091592]},"properties":{"secretariatName":"KOMARAVOLU","villageName":"KOMARAVOLU","sdtname":"ROLUGUNTA","dtname":"ANAKAPALLI","stname":"ANDHRA PRADESH","country":"India"}},{"type":"Feature","geometry":{"type":"Point","coordinates":[82.6873413,17.7587091]},"properties":{"secretariatName":"ADDASARAM","villageName":"ADDASARAM","sdtname":"ROLUGUNTA","dtname":"ANAKAPALLI","stname":"ANDHRA PRADESH","country":"India"}},{"type":"Feature","geometry":{"type":"Point","coordinates":[82.672051,17.7068889]},"properties":{"secretariatName":"KONDAPALEM","villageName":"KONDAPALEM","sdtname":"ROLUGUNTA","dtname":"ANAKAPALLI","stname":"ANDHRA PRADESH","country":"India"}},{"type":"Feature","geometry":{"type":"Point","coordinates":[82.666192,17.713397]},"properties":{"secretariatName":"ROLUGUNTA","villageName":"ROLUGUNTA","sdtname":"ROLUGUNTA","dtname":"ANAKAPALLI","stname":"ANDHRA PRADESH","country":"India"}},{"type":"Feature","geometry":{"type":"Point","coordinates":[82.6623056,17.7294076]},"properties":{"secretariatName":"KOVVURU","villageName":"KOVVURU","sdtname":"ROLUGUNTA","dtname":"ANAKAPALLI","stname":"ANDHRA PRADESH","country":"India"}},{"type":"Feature","geometry":{"type":"Point","coordinates":[82.6499108,17.7565057]},"properties":{"secretariatName":"KONTHALAM","villageName":"KONTHALAM","sdtname":"ROLUGUNTA","dtname":"ANAKAPALLI","stname":"ANDHRA PRADESH","country":"India"}},{"type":"Feature","geometry":{"type":"Point","coordinates":[82.6493472,17.7154626]},"properties":{"secretariatName":"K.NAIDUPALEM","villageName":"K.NAIDUPALEM","sdtname":"ROLUGUNTA","dtname":"ANAKAPALLI","stname":"ANDHRA PRADESH","country":"India"}},{"type":"Feature","geometry":{"type":"Point","coordinates":[82.6441109,17.7011544]},"properties":{"secretariatName":"NINDUGONDA","villageName":"NINDUGONDA","sdtname":"ROLUGUNTA","dtname":"ANAKAPALLI","stname":"ANDHRA PRADESH","country":"India"}},{"type":"Feature","geometry":{"type":"Point","coordinates":[82.6369177,17.7552542]},"properties":{"secretariatName":"SARABAVARAM","villageName":"SARABAVARAM","sdtname":"ROLUGUNTA","dtname":"ANAKAPALLI","stname":"ANDHRA PRADESH","country":"India"}},{"type":"Feature","geometry":{"type":"Point","coordinates":[82.6101956,17.7560654]},"properties":{"secretariatName":"RATNAMPETA","villageName":"RATNAMPETA","sdtname":"ROLUGUNTA","dtname":"ANAKAPALLI","stname":"ANDHRA PRADESH","country":"India"}},{"type":"Feature","geometry":{"type":"Point","coordinates":[82.609363,17.730152]},"properties":{"secretariatName":"BUTCHAMPETA","villageName":"BUTCHAMPETA","sdtname":"ROLUGUNTA","dtname":"ANAKAPALLI","stname":"ANDHRA PRADESH","country":"India"}},{"type":"Feature","geometry":{"type":"Point","coordinates":[82.586217,17.747742]},"properties":{"secretariatName":"M.K.PATNAM","villageName":"M.K.PATNAM","sdtname":"ROLUGUNTA","dtname":"ANAKAPALLI","stname":"ANDHRA PRADESH","country":"India"}},{"type":"Feature","geometry":{"type":"Point","coordinates":[82.8478976,17.4408565]},"properties":{"secretariatName":"VAKAPADU","villageName":"VAKAPADU","sdtname":"S. RAYAVARAM","dtname":"ANAKAPALLI","stname":"ANDHRA PRADESH","country":"India"}},{"type":"Feature","geometry":{"type":"Point","coordinates":[82.840129,17.501401]},"properties":{"secretariatName":"J.V.PALEM","villageName":"J.V.PALEM","sdtname":"S. RAYAVARAM","dtname":"ANAKAPALLI","stname":"ANDHRA PRADESH","country":"India"}},{"type":"Feature","geometry":{"type":"Point","coordinates":[82.834947,17.485915]},"properties":{"secretariatName":"SYTHARUPETA","villageName":"SYTHARUPETA","sdtname":"S. RAYAVARAM","dtname":"ANAKAPALLI","stname":"ANDHRA PRADESH","country":"India"}},{"type":"Feature","geometry":{"type":"Point","coordinates":[82.829319,17.469206]},"properties":{"secretariatName":"SARVASIDDI","villageName":"SARVASIDDI","sdtname":"S. RAYAVARAM","dtname":"ANAKAPALLI","stname":"ANDHRA PRADESH","country":"India"}},{"type":"Feature","geometry":{"type":"Point","coordinates":[82.827973,17.450206]},"properties":{"secretariatName":"UPPARAPALLI","villageName":"UPPARAPALLI","sdtname":"S. RAYAVARAM","dtname":"ANAKAPALLI","stname":"ANDHRA PRADESH","country":"India"}},{"type":"Feature","geometry":{"type":"Point","coordinates":[82.817825,17.397235]},"properties":{"secretariatName":"KOTHAREVUPOLAVARAM","villageName":"KOTHAREVUPOLAVARAM","sdtname":"S. RAYAVARAM","dtname":"ANAKAPALLI","stname":"ANDHRA PRADESH","country":"India"}},{"type":"Feature","geometry":{"type":"Point","coordinates":[82.8112733,17.44292443]},"properties":{"secretariatName":"LINGARAJUPALEM","villageName":"LINGARAJUPALEM","sdtname":"S. RAYAVARAM","dtname":"ANAKAPALLI","stname":"ANDHRA PRADESH","country":"India"}},{"type":"Feature","geometry":{"type":"Point","coordinates":[82.80389071,17.45470173]},"properties":{"secretariatName":"S.RAYAVARAM-1","villageName":"S.RAYAVARAM-1","sdtname":"S. RAYAVARAM","dtname":"ANAKAPALLI","stname":"ANDHRA PRADESH","country":"India"}},{"type":"Feature","geometry":{"type":"Point","coordinates":[82.8038877,17.4546061]},"properties":{"secretariatName":"S.RAYAVARAM-2","villageName":"S.RAYAVARAM-2","sdtname":"S. RAYAVARAM","dtname":"ANAKAPALLI","stname":"ANDHRA PRADESH","country":"India"}},{"type":"Feature","geometry":{"type":"Point","coordinates":[82.79644156,17.42412007]},"properties":{"secretariatName":"PEDAUPPALAM","villageName":"PEDAUPPALAM","sdtname":"S. RAYAVARAM","dtname":"ANAKAPALLI","stname":"ANDHRA PRADESH","country":"India"}},{"type":"Feature","geometry":{"type":"Point","coordinates":[82.7909714,17.3968872]},"properties":{"secretariatName":"GUDIVADA","villageName":"GUDIVADA","sdtname":"S. RAYAVARAM","dtname":"ANAKAPALLI","stname":"ANDHRA PRADESH","country":"India"}},{"type":"Feature","geometry":{"type":"Point","coordinates":[82.7796506,17.4574468]},"properties":{"secretariatName":"VOMMAVARAM","villageName":"VOMMAVARAM","sdtname":"S. RAYAVARAM","dtname":"ANAKAPALLI","stname":"ANDHRA PRADESH","country":"India"}},{"type":"Feature","geometry":{"type":"Point","coordinates":[82.7749463,17.4672241]},"properties":{"secretariatName":"PENUGOLLU","villageName":"PENUGOLLU","sdtname":"S. RAYAVARAM","dtname":"ANAKAPALLI","stname":"ANDHRA PRADESH","country":"India"}},{"type":"Feature","geometry":{"type":"Point","coordinates":[82.774399,17.4713671]},"properties":{"secretariatName":"D.H.AGRAHARAM","villageName":"D.H.AGRAHARAM","sdtname":"S. RAYAVARAM","dtname":"ANAKAPALLI","stname":"ANDHRA PRADESH","country":"India"}},{"type":"Feature","geometry":{"type":"Point","coordinates":[82.7721759,17.4444236]},