{"type":"FeatureCollection","features":[{"type":"Feature","geometry":{"type":"Point","coordinates":[79.971209,15.90449]},"properties":{"secretariatName":"CHINNAKOTHAPALLI","villageName":"CHINNAKOTHAPALLI","sdtname":"ADDANKI","dtname":"BAPATLA","stname":"ANDHRA PRADESH","country":"India"}},{"type":"Feature","geometry":{"type":"Point","coordinates":[79.981905,15.754016]},"properties":{"secretariatName":"MANIKESWARAM","villageName":"MANIKESWARAM","sdtname":"ADDANKI","dtname":"BAPATLA","stname":"ANDHRA PRADESH","country":"India"}},{"type":"Feature","geometry":{"type":"Point","coordinates":[79.909908,15.899717]},"properties":{"secretariatName":"UPPALAPADU","villageName":"UPPALAPADU","sdtname":"ADDANKI","dtname":"BAPATLA","stname":"ANDHRA PRADESH","country":"India"}},{"type":"Feature","geometry":{"type":"Point","coordinates":[80.030306,15.790082]},"properties":{"secretariatName":"VENKATAPURAM","villageName":"VENKATAPURAM","sdtname":"ADDANKI","dtname":"BAPATLA","stname":"ANDHRA PRADESH","country":"India"}},{"type":"Feature","geometry":{"type":"Point","coordinates":[79.937906,15.889501]},"properties":{"secretariatName":"VEMPARALA","villageName":"VEMPARALA","sdtname":"ADDANKI","dtname":"BAPATLA","stname":"ANDHRA PRADESH","country":"India"}},{"type":"Feature","geometry":{"type":"Point","coordinates":[79.999002,15.890743]},"properties":{"secretariatName":"SANKHAVARAPPADU","villageName":"SANKHAVARAPPADU","sdtname":"ADDANKI","dtname":"BAPATLA","stname":"ANDHRA PRADESH","country":"India"}},{"type":"Feature","geometry":{"type":"Point","coordinates":[79.932633,15.748612]},"properties":{"secretariatName":"MODEPALLI","villageName":"MODEPALLI","sdtname":"ADDANKI","dtname":"BAPATLA","stname":"ANDHRA PRADESH","country":"India"}},{"type":"Feature","geometry":{"type":"Point","coordinates":[79.993248,15.869424]},"properties":{"secretariatName":"KALAVAKURU","villageName":"KALAVAKURU","sdtname":"ADDANKI","dtname":"BAPATLA","stname":"ANDHRA PRADESH","country":"India"}},{"type":"Feature","geometry":{"type":"Point","coordinates":[80.005455,15.842879]},"properties":{"secretariatName":"BOMMANAMPADU","villageName":"BOMMANAMPADU","sdtname":"ADDANKI","dtname":"BAPATLA","stname":"ANDHRA PRADESH","country":"India"}},{"type":"Feature","geometry":{"type":"Point","coordinates":[80.0104909,15.8127724]},"properties":{"secretariatName":"JARLAPALEM","villageName":"JARLAPALEM","sdtname":"ADDANKI","dtname":"BAPATLA","stname":"ANDHRA PRADESH","country":"India"}},{"type":"Feature","geometry":{"type":"Point","coordinates":[79.9518958,15.8622535]},"properties":{"secretariatName":"CHAKRAYAPALEMM","villageName":"CHAKRAYAPALEMM","sdtname":"ADDANKI","dtname":"BAPATLA","stname":"ANDHRA PRADESH","country":"India"}},{"type":"Feature","geometry":{"type":"Point","coordinates":[79.9552327,15.8104703]},"properties":{"secretariatName":"TIMMAYAPALEM","villageName":"TIMMAYAPALEM","sdtname":"ADDANKI","dtname":"BAPATLA","stname":"ANDHRA PRADESH","country":"India"}},{"type":"Feature","geometry":{"type":"Point","coordinates":[79.950372,15.774689]},"properties":{"secretariatName":"KOTIKALAPUDI","villageName":"KOTIKALAPUDI","sdtname":"ADDANKI","dtname":"BAPATLA","stname":"ANDHRA PRADESH","country":"India"}},{"type":"Feature","geometry":{"type":"Point","coordinates":[79.97251319,15.88321773]},"properties":{"secretariatName":"SINGARAKONDAPALEM","villageName":"SINGARAKONDAPALEM","sdtname":"ADDANKI","dtname":"BAPATLA","stname":"ANDHRA PRADESH","country":"India"}},{"type":"Feature","geometry":{"type":"Point","coordinates":[80.0012611,15.7915554]},"properties":{"secretariatName":"NAGULAPADU","villageName":"NAGULAPADU","sdtname":"ADDANKI","dtname":"BAPATLA","stname":"ANDHRA PRADESH","country":"India"}},{"type":"Feature","geometry":{"type":"Point","coordinates":[80.00205,15.907503]},"properties":{"secretariatName":"DHARMAVARAM","villageName":"DHARMAVARAM","sdtname":"ADDANKI","dtname":"BAPATLA","stname":"ANDHRA PRADESH","country":"India"}},{"type":"Feature","geometry":{"type":"Point","coordinates":[79.9438,15.7101]},"properties":{"secretariatName":"DHENUVAKONDA","villageName":"DHENUVAKONDA","sdtname":"ADDANKI","dtname":"BAPATLA","stname":"ANDHRA PRADESH","country":"India"}},{"type":"Feature","geometry":{"type":"Point","coordinates":[80.6628365,16.1185774]},"properties":{"secretariatName":"AMRUTHALUR-2","villageName":"AMRUTHALUR-2","sdtname":"AMRUTHALURU","dtname":"BAPATLA","stname":"ANDHRA PRADESH","country":"India"}},{"type":"Feature","geometry":{"type":"Point","coordinates":[80.626363,16.066095]},"properties":{"secretariatName":"INTUR-1","villageName":"INTUR-1","sdtname":"AMRUTHALURU","dtname":"BAPATLA","stname":"ANDHRA PRADESH","country":"India"}},{"type":"Feature","geometry":{"type":"Point","coordinates":[80.67855,16.161381]},"properties":{"secretariatName":"MULPUR","villageName":"MULPUR","sdtname":"AMRUTHALURU","dtname":"BAPATLA","stname":"ANDHRA PRADESH","country":"India"}},{"type":"Feature","geometry":{"type":"Point","coordinates":[80.6628365,16.1185774]},"properties":{"secretariatName":"AMRUTHALUR-1","villageName":"AMRUTHALUR-1","sdtname":"AMRUTHALURU","dtname":"BAPATLA","stname":"ANDHRA PRADESH","country":"India"}},{"type":"Feature","geometry":{"type":"Point","coordinates":[80.6667264,16.0873761]},"properties":{"secretariatName":"GOVADA","villageName":"GOVADA","sdtname":"AMRUTHALURU","dtname":"BAPATLA","stname":"ANDHRA PRADESH","country":"India"}},{"type":"Feature","geometry":{"type":"Point","coordinates":[80.641815,16.114253]},"properties":{"secretariatName":"THURUMELLA","villageName":"THURUMELLA","sdtname":"AMRUTHALURU","dtname":"BAPATLA","stname":"ANDHRA PRADESH","country":"India"}},{"type":"Feature","geometry":{"type":"Point","coordinates":[80.665668,16.175772]},"properties":{"secretariatName":"KUCHIPUDI","villageName":"KUCHIPUDI","sdtname":"AMRUTHALURU","dtname":"BAPATLA","stname":"ANDHRA PRADESH","country":"India"}},{"type":"Feature","geometry":{"type":"Point","coordinates":[80.6811142,16.190816]},"properties":{"secretariatName":"YADAVURU","villageName":"YADAVURU","sdtname":"AMRUTHALURU","dtname":"BAPATLA","stname":"ANDHRA PRADESH","country":"India"}},{"type":"Feature","geometry":{"type":"Point","coordinates":[80.643879,16.0896342]},"properties":{"secretariatName":"YELAVARRU","villageName":"YELAVARRU","sdtname":"AMRUTHALURU","dtname":"BAPATLA","stname":"ANDHRA PRADESH","country":"India"}},{"type":"Feature","geometry":{"type":"Point","coordinates":[80.6199161,16.1077458]},"properties":{"secretariatName":"MOPARRU","villageName":"MOPARRU","sdtname":"AMRUTHALURU","dtname":"BAPATLA","stname":"ANDHRA PRADESH","country":"India"}},{"type":"Feature","geometry":{"type":"Point","coordinates":[80.68709,16.103794]},"properties":{"secretariatName":"PANCHALAVARAM","villageName":"PANCHALAVARAM","sdtname":"AMRUTHALURU","dtname":"BAPATLA","stname":"ANDHRA PRADESH","country":"India"}},{"type":"Feature","geometry":{"type":"Point","coordinates":[80.662755,16.145139]},"properties":{"secretariatName":"PEDAPUDI","villageName":"PEDAPUDI","sdtname":"AMRUTHALURU","dtname":"BAPATLA","stname":"ANDHRA PRADESH","country":"India"}},{"type":"Feature","geometry":{"type":"Point","coordinates":[80.611344,16.082909]},"properties":{"secretariatName":"PYAPARRU","villageName":"PYAPARRU","sdtname":"AMRUTHALURU","dtname":"BAPATLA","stname":"ANDHRA PRADESH","country":"India"}},{"type":"Feature","geometry":{"type":"Point","coordinates":[80.627003,16.065295]},"properties":{"secretariatName":"INTUR-2","villageName":"INTUR-2","sdtname":"AMRUTHALURU","dtname":"BAPATLA","stname":"ANDHRA PRADESH","country":"India"}},{"type":"Feature","geometry":{"type":"Point","coordinates":[80.024745,15.997177]},"properties":{"secretariatName":"BALLIKURAVA","villageName":"BALLIKURAVA","sdtname":"BALLIKURAVA","dtname":"BAPATLA","stname":"ANDHRA PRADESH","country":"India"}},{"type":"Feature","geometry":{"type":"Point","coordinates":[80.0156268,15.982918]},"properties":{"secretariatName":"GUNTUPALLI","villageName":"GUNTUPALLI","sdtname":"BALLIKURAVA","dtname":"BAPATLA","stname":"ANDHRA PRADESH","country":"India"}},{"type":"Feature","geometry":{"type":"Point","coordinates":[80.0215285,15.953914]},"properties":{"secretariatName":"VALLAPALLI","villageName":"VALLAPALLI","sdtname":"BALLIKURAVA","dtname":"BAPATLA","stname":"ANDHRA PRADESH","country":"India"}},{"type":"Feature","geometry":{"type":"Point","coordinates":[79.929747,15.9641098]},"properties":{"secretariatName":"KUKATLAPALLI","villageName":"KUKATLAPALLI","sdtname":"BALLIKURAVA","dtname":"BAPATLA","stname":"ANDHRA PRADESH","country":"India"}},{"type":"Feature","geometry":{"type":"Point","coordinates":[79.8987276,15.9274572]},"properties":{"secretariatName":"VELEMAVARIPALEM","villageName":"VELEMAVARIPALEM","sdtname":"BALLIKURAVA","dtname":"BAPATLA","stname":"ANDHRA PRADESH","country":"India"}},{"type":"Feature","geometry":{"type":"Point","coordinates":[80.0793069,16.042028]},"properties":{"secretariatName":"VEMAVARAM","villageName":"VEMAVARAM","sdtname":"BALLIKURAVA","dtname":"BAPATLA","stname":"ANDHRA PRADESH","country":"India"}},{"type":"Feature","geometry":{"type":"Point","coordinates":[80.029988,16.043831]},"properties":{"secretariatName":"MALLYAPALEM","villageName":"MALLYAPALEM","sdtname":"BALLIKURAVA","dtname":"BAPATLA","stname":"ANDHRA PRADESH","country":"India"}},{"type":"Feature","geometry":{"type":"Point","coordinates":[79.9917672,15.9500528]},"properties":{"secretariatName":"K.V.PALEM","villageName":"K.V.PALEM","sdtname":"BALLIKURAVA","dtname":"BAPATLA","stname":"ANDHRA PRADESH","country":"India"}},{"type":"Feature","geometry":{"type":"Point","coordinates":[79.924509,15.92159]},"properties":{"secretariatName":"KOTHURU","villageName":"KOTHURU","sdtname":"BALLIKURAVA","dtname":"BAPATLA","stname":"ANDHRA PRADESH","country":"India"}},{"type":"Feature","geometry":{"type":"Point","coordinates":[79.9607042,15.96018]},"properties":{"secretariatName":"VAIDENA","villageName":"VAIDENA","sdtname":"BALLIKURAVA","dtname":"BAPATLA","stname":"ANDHRA PRADESH","country":"India"}},{"type":"Feature","geometry":{"type":"Point","coordinates":[80.0123903,16.0670086]},"properties":{"secretariatName":"KOPPERAPALEM","villageName":"KOPPERAPALEM","sdtname":"BALLIKURAVA","dtname":"BAPATLA","stname":"ANDHRA PRADESH","country":"India"}},{"type":"Feature","geometry":{"type":"Point","coordinates":[80.009067,15.971678]},"properties":{"secretariatName":"AMBADIPUDI","villageName":"AMBADIPUDI","sdtname":"BALLIKURAVA","dtname":"BAPATLA","stname":"ANDHRA PRADESH","country":"India"}},{"type":"Feature","geometry":{"type":"Point","coordinates":[80.000068,16.015474]},"properties":{"secretariatName":"CHENNUPALLI","villageName":"CHENNUPALLI","sdtname":"BALLIKURAVA","dtname":"BAPATLA","stname":"ANDHRA PRADESH","country":"India"}},{"type":"Feature","geometry":{"type":"Point","coordinates":[79.9585243,15.9352799]},"properties":{"secretariatName":"KOPPERAPADU","villageName":"KOPPERAPADU","sdtname":"BALLIKURAVA","dtname":"BAPATLA","stname":"ANDHRA PRADESH","country":"India"}},{"type":"Feature","geometry":{"type":"Point","coordinates":[79.953359,15.974284]},"properties":{"secretariatName":"S.L.GUDIPADU","villageName":"S.L.GUDIPADU","sdtname":"BALLIKURAVA","dtname":"BAPATLA","stname":"ANDHRA PRADESH","country":"India"}},{"type":"Feature","geometry":{"type":"Point","coordinates":[80.057319,16.014949]},"properties":{"secretariatName":"KONIDENA","villageName":"KONIDENA","sdtname":"BALLIKURAVA","dtname":"BAPATLA","stname":"ANDHRA PRADESH","country":"India"}},{"type":"Feature","geometry":{"type":"Point","coordinates":[80.03457,15.997945]},"properties":{"secretariatName":"N.B.PADU","villageName":"N.B.PADU","sdtname":"BALLIKURAVA","dtname":"BAPATLA","stname":"ANDHRA PRADESH","country":"India"}},{"type":"Feature","geometry":{"type":"Point","coordinates":[80.0662778,16.0738221]},"properties":{"secretariatName":"UPPUMAGULUR1","villageName":"UPPUMAGULUR1","sdtname":"BALLIKURAVA","dtname":"BAPATLA","stname":"ANDHRA PRADESH","country":"India"}},{"type":"Feature","geometry":{"type":"Point","coordinates":[80.032398,16.060249]},"properties":{"secretariatName":"UPPUMAGULUR2","villageName":"UPPUMAGULUR2","sdtname":"BALLIKURAVA","dtname":"BAPATLA","stname":"ANDHRA PRADESH","country":"India"}},{"type":"Feature","geometry":{"type":"Point","coordinates":[79.982692,15.992719]},"properties":{"secretariatName":"MUKTHESWARAM","villageName":"MUKTHESWARAM","sdtname":"BALLIKURAVA","dtname":"BAPATLA","stname":"ANDHRA PRADESH","country":"India"}},{"type":"Feature","geometry":{"type":"Point","coordinates":[80.457468,15.88476]},"properties":{"secretariatName":"ASODIVARIPALEM","villageName":"ASODIVARIPALEM","sdtname":"BAPATLA","dtname":"BAPATLA","stname":"ANDHRA PRADESH","country":"India"}},{"type":"Feature","geometry":{"type":"Point","coordinates":[80.394992,15.954726]},"properties":{"secretariatName":"NARASAYAPALEM","villageName":"NARASAYAPALEM","sdtname":"BAPATLA","dtname":"BAPATLA","stname":"ANDHRA PRADESH","country":"India"}},{"type":"Feature","geometry":{"type":"Point","coordinates":[80.512561,15.903278]},"properties":{"secretariatName":"PINNIBOYINAVARIPALEM","villageName":"PINNIBOYINAVARIPALEM","sdtname":"BAPATLA","dtname":"BAPATLA","stname":"ANDHRA PRADESH","country":"India"}},{"type":"Feature","geometry":{"type":"Point","coordinates":[80.4309733,15.9611258]},"properties":{"secretariatName":"CHERUVUJAMMULAPALAM-1","villageName":"CHERUVUJAMMULAPALAM-1","sdtname":"BAPATLA","dtname":"BAPATLA","stname":"ANDHRA PRADESH","country":"India"}},{"type":"Feature","geometry":{"type":"Point","coordinates":[80.46183,15.878302]},"properties":{"secretariatName":"MARUPROLUVARIPALEM","villageName":"MARUPROLUVARIPALEM","sdtname":"BAPATLA","dtname":"BAPATLA","stname":"ANDHRA PRADESH","country":"India"}},{"type":"Feature","geometry":{"type":"Point","coordinates":[80.458983,15.828282]},"properties":{"secretariatName":"ADAVI-1","villageName":"ADAVI-1","sdtname":"BAPATLA","dtname":"BAPATLA","stname":"ANDHRA PRADESH","country":"India"}},{"type":"Feature","geometry":{"type":"Point","coordinates":[80.420248,15.8815]},"properties":{"secretariatName":"VEDULLAPALLI","villageName":"VEDULLAPALLI","sdtname":"BAPATLA","dtname":"BAPATLA","stname":"ANDHRA PRADESH","country":"India"}},{"type":"Feature","geometry":{"type":"Point","coordinates":[80.504848,15.928597]},"properties":{"secretariatName":"KONDUBHOTLAVARIPALEM","villageName":"KONDUBHOTLAVARIPALEM","sdtname":"BAPATLA","dtname":"BAPATLA","stname":"ANDHRA PRADESH","country":"India"}},{"type":"Feature","geometry":{"type":"Point","coordinates":[80.5058129,15.9228456]},"properties":{"secretariatName":"EASTBAPATLA","villageName":"EASTBAPATLA","sdtname":"BAPATLA","dtname":"BAPATLA","stname":"ANDHRA PRADESH","country":"India"}},{"type":"Feature","geometry":{"type":"Point","coordinates":[80.4168569,15.922994]},"properties":{"secretariatName":"KANKATAPALEM","villageName":"KANKATAPALEM","sdtname":"BAPATLA","dtname":"BAPATLA","stname":"ANDHRA PRADESH","country":"India"}},{"type":"Feature","geometry":{"type":"Point","coordinates":[80.4061947,15.8667465]},"properties":{"secretariatName":"STUVARTAPURAM","villageName":"STUVARTAPURAM","sdtname":"BAPATLA","dtname":"BAPATLA","stname":"ANDHRA PRADESH","country":"India"}},{"type":"Feature","geometry":{"type":"Point","coordinates":[80.486602,15.882166]},"properties":{"secretariatName":"MUTHAYAPALEM","villageName":"MUTHAYAPALEM","sdtname":"BAPATLA","dtname":"BAPATLA","stname":"ANDHRA PRADESH","country":"India"}},{"type":"Feature","geometry":{"type":"Point","coordinates":[80.493911,15.867721]},"properties":{"secretariatName":"ADAVI-2","villageName":"ADAVI-2","sdtname":"BAPATLA","dtname":"BAPATLA","stname":"ANDHRA PRADESH","country":"India"}},{"type":"Feature","geometry":{"type":"Point","coordinates":[80.4436049,15.8939729]},"properties":{"secretariatName":"WESTBAPATLA","villageName":"WESTBAPATLA","sdtname":"BAPATLA","dtname":"BAPATLA","stname":"ANDHRA PRADESH","country":"India"}},{"type":"Feature","geometry":{"type":"Point","coordinates":[80.4903792,15.99356]},"properties":{"secretariatName":"POONDLA","villageName":"POONDLA","sdtname":"BAPATLA","dtname":"BAPATLA","stname":"ANDHRA PRADESH","country":"India"}},{"type":"Feature","geometry":{"type":"Point","coordinates":[80.419218,15.875293]},"properties":{"secretariatName":"BETHAPUDI","villageName":"BETHAPUDI","sdtname":"BAPATLA","dtname":"BAPATLA","stname":"ANDHRA PRADESH","country":"India"}},{"type":"Feature","geometry":{"type":"Point","coordinates":[80.515046,15.990428]},"properties":{"secretariatName":"ETHERU","villageName":"ETHERU","sdtname":"BAPATLA","dtname":"BAPATLA","stname":"ANDHRA PRADESH","country":"India"}},{"type":"Feature","geometry":{"type":"Point","coordinates":[80.472515,15.961765]},"properties":{"secretariatName":"MULAPALEM","villageName":"MULAPALEM","sdtname":"BAPATLA","dtname":"BAPATLA","stname":"ANDHRA PRADESH","country":"India"}},{"type":"Feature","geometry":{"type":"Point","coordinates":[80.526695,15.978812]},"properties":{"secretariatName":"GUDIPUDI","villageName":"GUDIPUDI","sdtname":"BAPATLA","dtname":"BAPATLA","stname":"ANDHRA PRADESH","country":"India"}},{"type":"Feature","geometry":{"type":"Point","coordinates":[80.5103454,15.9745955]},"properties":{"secretariatName":"APPIKATLA","villageName":"APPIKATLA","sdtname":"BAPATLA","dtname":"BAPATLA","stname":"ANDHRA PRADESH","country":"India"}},{"type":"Feature","geometry":{"type":"Point","coordinates":[80.429577,15.970503]},"properties":{"secretariatName":"CHERUVUJAMMULAPALAM-2","villageName":"CHERUVUJAMMULAPALAM-2","sdtname":"BAPATLA","dtname":"BAPATLA","stname":"ANDHRA PRADESH","country":"India"}},{"type":"Feature","geometry":{"type":"Point","coordinates":[80.787481,16.066744]},"properties":{"secretariatName":"KONETIPURAM","villageName":"KONETIPURAM","sdtname":"BHATTIPROLU","dtname":"BAPATLA","stname":"ANDHRA PRADESH","country":"India"}},{"type":"Feature","geometry":{"type":"Point","coordinates":[80.8518065,16.0979536]},"properties":{"secretariatName":"PEDALANKA","villageName":"PEDALANKA","sdtname":"BHATTIPROLU","dtname":"BAPATLA","stname":"ANDHRA PRADESH","country":"India"}},{"type":"Feature","geometry":{"type":"Point","coordinates":[80.837834,16.080417]},"properties":{"secretariatName":"GORIGAPUDI","villageName":"GORIGAPUDI","sdtname":"BHATTIPROLU","dtname":"BAPATLA","stname":"ANDHRA PRADESH","country":"India"}},{"type":"Feature","geometry":{"type":"Point","coordinates":[80.7522925,16.0791815]},"properties":{"secretariatName":"ILAVARAM-1","villageName":"ILAVARAM-1","sdtname":"BHATTIPROLU","dtname":"BAPATLA","stname":"ANDHRA PRADESH","country":"India"}},{"type":"Feature","geometry":{"type":"Point","coordinates":[80.7862691,16.077954]},"properties":{"secretariatName":"SUREPALLI","villageName":"SUREPALLI","sdtname":"BHATTIPROLU","dtname":"BAPATLA","stname":"ANDHRA PRADESH","country":"India"}},{"type":"Feature","geometry":{"type":"Point","coordinates":[80.8256953,16.0859736]},"properties":{"secretariatName":"PEDAPULIVARRU","villageName":"PEDAPULIVARRU","sdtname":"BHATTIPROLU","dtname":"BAPATLA","stname":"ANDHRA PRADESH","country":"India"}},{"type":"Feature","geometry":{"type":"Point","coordinates":[80.7784194,16.1030749]},"properties":{"secretariatName":"BHATTIPROLU-2","villageName":"BHATTIPROLU-2","sdtname":"BHATTIPROLU","dtname":"BAPATLA","stname":"ANDHRA PRADESH","country":"India"}},{"type":"Feature","geometry":{"type":"Point","coordinates":[80.751488,16.078957]},"properties":{"secretariatName":"ILAVARAM-2","villageName":"ILAVARAM-2","sdtname":"BHATTIPROLU","dtname":"BAPATLA","stname":"ANDHRA PRADESH","country":"India"}},{"type":"Feature","geometry":{"type":"Point","coordinates":[80.802948,16.059241]},"properties":{"secretariatName":"PALLIKONA","villageName":"PALLIKONA","sdtname":"BHATTIPROLU","dtname":"BAPATLA","stname":"ANDHRA PRADESH","country":"India"}},{"type":"Feature","geometry":{"type":"Point","coordinates":[80.786655,16.103234]},"properties":{"secretariatName":"BHATTIPROLU-1","villageName":"BHATTIPROLU-1","sdtname":"BHATTIPROLU","dtname":"BAPATLA","stname":"ANDHRA PRADESH","country":"India"}},{"type":"Feature","geometry":{"type":"Point","coordinates":[80.855035,16.066702]},"properties":{"secretariatName":"OLERU","villageName":"OLERU","sdtname":"BHATTIPROLU","dtname":"BAPATLA","stname":"ANDHRA PRADESH","country":"India"}},{"type":"Feature","geometry":{"type":"Point","coordinates":[80.8111061,16.1167158]},"properties":{"secretariatName":"VELLATURU","villageName":"VELLATURU","sdtname":"BHATTIPROLU","dtname":"BAPATLA","stname":"ANDHRA PRADESH","country":"India"}},{"type":"Feature","geometry":{"type":"Point","coordinates":[80.6790125,16.0470116]},"properties":{"secretariatName":"CHERUKUPALLI-2","villageName":"CHERUKUPALLI-2","sdtname":"CHERUKUPALLI","dtname":"BAPATLA","stname":"ANDHRA PRADESH","country":"India"}},{"type":"Feature","geometry":{"type":"Point","coordinates":[80.6949308,16.0321654]},"properties":{"secretariatName":"AREPALLI","villageName":"AREPALLI","sdtname":"CHERUKUPALLI","dtname":"BAPATLA","stname":"ANDHRA PRADESH","country":"India"}},{"type":"Feature","geometry":{"type":"Point","coordinates":[80.6401103,16.0232592]},"properties":{"secretariatName":"RAMBHOTLAPALEM","villageName":"RAMBHOTLAPALEM","sdtname":"CHERUKUPALLI","dtname":"BAPATLA","stname":"ANDHRA PRADESH","country":"India"}},{"type":"Feature","geometry":{"type":"Point","coordinates":[80.6783809,16.0465019]},"properties":{"secretariatName":"CHERUKUPALLI-1","villageName":"CHERUKUPALLI-1","sdtname":"CHERUKUPALLI","dtname":"BAPATLA","stname":"ANDHRA PRADESH","country":"India"}},{"type":"Feature","geometry":{"type":"Point","coordinates":[80.655215,16.040034]},"properties":{"secretariatName":"KAVURU","villageName":"KAVURU","sdtname":"CHERUKUPALLI","dtname":"BAPATLA","stname":"ANDHRA PRADESH","country":"India"}},{"type":"Feature","geometry":{"type":"Point","coordinates":[80.7471186,16.0655331]},"properties":{"secretariatName":"ALLAVARIPALEM","villageName":"ALLAVARIPALEM","sdtname":"CHERUKUPALLI","dtname":"BAPATLA","stname":"ANDHRA PRADESH","country":"India"}},{"type":"Feature","geometry":{"type":"Point","coordinates":[80.719741,16.072043]},"properties":{"secretariatName":"GUDAVALLI","villageName":"GUDAVALLI","sdtname":"CHERUKUPALLI","dtname":"BAPATLA","stname":"ANDHRA PRADESH","country":"India"}},{"type":"Feature","geometry":{"type":"Point","coordinates":[80.652934,16.014823]},"properties":{"secretariatName":"THUMMALAPALEM","villageName":"THUMMALAPALEM","sdtname":"CHERUKUPALLI","dtname":"BAPATLA","stname":"ANDHRA PRADESH","country":"India"}},{"type":"Feature","geometry":{"type":"Point","coordinates":[80.716143,16.024827]},"properties":{"secretariatName":"THURPUPALEM","villageName":"THURPUPALEM","sdtname":"CHERUKUPALLI","dtname":"BAPATLA","stname":"ANDHRA PRADESH","country":"India"}},{"type":"Feature","geometry":{"type":"Point","coordinates":[80.6706012,16.0465836]},"properties":{"secretariatName":"ARUMBAKA","villageName":"ARUMBAKA","sdtname":"CHERUKUPALLI","dtname":"BAPATLA","stname":"ANDHRA PRADESH","country":"India"}},{"type":"Feature","geometry":{"type":"Point","coordinates":[80.6975872,16.0600062]},"properties":{"secretariatName":"PONNAPALLI","villageName":"PONNAPALLI","sdtname":"CHERUKUPALLI","dtname":"BAPATLA","stname":"ANDHRA PRADESH","country":"India"}},{"type":"Feature","geometry":{"type":"Point","coordinates":[80.7422366,16.0779044]},"properties":{"secretariatName":"KANAGALA","villageName":"KANAGALA","sdtname":"CHERUKUPALLI","dtname":"BAPATLA","stname":"ANDHRA PRADESH","country":"India"}},{"type":"Feature","geometry":{"type":"Point","coordinates":[80.7245141,16.0515109]},"properties":{"secretariatName":"RAJAVOLU","villageName":"RAJAVOLU","sdtname":"CHERUKUPALLI","dtname":"BAPATLA","stname":"ANDHRA PRADESH","country":"India"}},{"type":"Feature","geometry":{"type":"Point","coordinates":[80.660036,16.008089]},"properties":{"secretariatName":"BALUSULAPALEM","villageName":"BALUSULAPALEM","sdtname":"CHERUKUPALLI","dtname":"BAPATLA","stname":"ANDHRA PRADESH","country":"India"}},{"type":"Feature","geometry":{"type":"Point","coordinates":[80.687176,16.051389]},"properties":{"secretariatName":"GULLAPALL","villageName":"GULLAPALL","sdtname":"CHERUKUPALLI","dtname":"BAPATLA","stname":"ANDHRA PRADESH","country":"India"}},{"type":"Feature","geometry":{"type":"Point","coordinates":[80.6206682,16.0137608]},"properties":{"secretariatName":"KUNCHALAVARIPALEM","villageName":"KUNCHALAVARIPALEM","sdtname":"CHERUKUPALLI","dtname":"BAPATLA","stname":"ANDHRA PRADESH","country":"India"}},{"type":"Feature","geometry":{"type":"Point","coordinates":[80.7115688,16.0685249]},"properties":{"secretariatName":"NADIMPALLI","villageName":"NADIMPALLI","sdtname":"CHERUKUPALLI","dtname":"BAPATLA","stname":"ANDHRA PRADESH","country":"India"}},{"type":"Feature","geometry":{"type":"Point","coordinates":[80.2563242,15.7243619]},"properties":{"secretariatName":"KADAVAKUDURU1","villageName":"KADAVAKUDURU1","sdtname":"CHINAGANJAM","dtname":"BAPATLA","stname":"ANDHRA PRADESH","country":"India"}},{"type":"Feature","geometry":{"type":"Point","coordinates":[80.229016,15.673513]},"properties":{"secretariatName":"RAJUBANGARUPAPALEM","villageName":"RAJUBANGARUPAPALEM","sdtname":"CHINAGANJAM","dtname":"BAPATLA","stname":"ANDHRA PRADESH","country":"India"}},{"type":"Feature","geometry":{"type":"Point","coordinates":[80.2275457,15.644382]},"properties":{"secretariatName":"PEDAGANJAM1","villageName":"PEDAGANJAM1","sdtname":"CHINAGANJAM","dtname":"BAPATLA","stname":"ANDHRA PRADESH","country":"India"}},{"type":"Feature","geometry":{"type":"Point","coordinates":[80.2343968,15.6872268]},"properties":{"secretariatName":"MUNNAMVARIPALEM","villageName":"MUNNAMVARIPALEM","sdtname":"CHINAGANJAM","dtname":"BAPATLA","stname":"ANDHRA PRADESH","country":"India"}},{"type":"Feature","geometry":{"type":"Point","coordinates":[80.258352,15.805158]},"properties":{"secretariatName":"SANTHARAVURU","villageName":"SANTHARAVURU","sdtname":"CHINAGANJAM","dtname":"BAPATLA","stname":"ANDHRA PRADESH","country":"India"}},{"type":"Feature","geometry":{"type":"Point","coordinates":[80.2220285,15.7469273]},"properties":{"secretariatName":"GONASAPUDI","villageName":"GONASAPUDI","sdtname":"CHINAGANJAM","dtname":"BAPATLA","stname":"ANDHRA PRADESH","country":"India"}},{"type":"Feature","geometry":{"type":"Point","coordinates":[80.2396872,15.6889396]},"properties":{"secretariatName":"KOTHAPALEM2","villageName":"KOTHAPALEM2","sdtname":"CHINAGANJAM","dtname":"BAPATLA","stname":"ANDHRA PRADESH","country":"India"}},{"type":"Feature","geometry":{"type":"Point","coordinates":[80.2720488,15.6916385]},"properties":{"secretariatName":"PALLEPALEM1","villageName":"PALLEPALEM1","sdtname":"CHINAGANJAM","dtname":"BAPATLA","stname":"ANDHRA PRADESH","country":"India"}},{"type":"Feature","geometry":{"type":"Point","coordinates":[80.28128683,15.72602045]},"properties":{"secretariatName":"MOTUPALLI","villageName":"MOTUPALLI","sdtname":"CHINAGANJAM","dtname":"BAPATLA","stname":"ANDHRA PRADESH","country":"India"}},{"type":"Feature","geometry":{"type":"Point","coordinates":[80.256333,15.729071]},"properties":{"secretariatName":"KADAVAKUDURU2","villageName":"KADAVAKUDURU2","sdtname":"CHINAGANJAM","dtname":"BAPATLA","stname":"ANDHRA PRADESH","country":"India"}},{"type":"Feature","geometry":{"type":"Point","coordinates":[80.2407872,15.6951582]},"properties":{"secretariatName":"CHINNAGANJAM1","villageName":"CHINNAGANJAM1","sdtname":"CHINAGANJAM","dtname":"BAPATLA","stname":"ANDHRA PRADESH","country":"India"}},{"type":"Feature","geometry":{"type":"Point","coordinates":[80.245549,15.7036798]},"properties":{"secretariatName":"CHINNAGANJAM2","villageName":"CHINNAGANJAM2","sdtname":"CHINAGANJAM","dtname":"BAPATLA","stname":"ANDHRA PRADESH","country":"India"}},{"type":"Feature","geometry":{"type":"Point","coordinates":[80.245467,15.644027]},"properties":{"secretariatName":"PEDAGANJAM2","villageName":"PEDAGANJAM2","sdtname":"CHINAGANJAM","dtname":"BAPATLA","stname":"ANDHRA PRADESH","country":"India"}},{"type":"Feature","geometry":{"type":"Point","coordinates":[80.346013,15.81813]},"properties":{"secretariatName":"SOLMONCENTRE","villageName":"SOLMONCENTRE","sdtname":"CHIRALA","dtname":"BAPATLA","stname":"ANDHRA PRADESH","country":"India"}},{"type":"Feature","geometry":{"type":"Point","coordinates":[80.433394,15.843208]},"properties":{"secretariatName":"GAVINIVARIPALEM2","villageName":"GAVINIVARIPALEM2","sdtname":"CHIRALA","dtname":"BAPATLA","stname":"ANDHRA PRADESH","country":"India"}},{"type":"Feature","geometry":{"type":"Point","coordinates":[80.421877,15.864393]},"properties":{"secretariatName":"KAVAURIVARIPALEM1","villageName":"KAVAURIVARIPALEM1","sdtname":"CHIRALA","dtname":"BAPATLA","stname":"ANDHRA PRADESH","country":"India"}},{"type":"Feature","geometry":{"type":"Point","coordinates":[80.3477126,15.8155629]},"properties":{"secretariatName":"RAMAKRISHNAPURAM1","villageName":"RAMAKRISHNAPURAM1","sdtname":"CHIRALA","dtname":"BAPATLA","stname":"ANDHRA PRADESH","country":"India"}},{"type":"Feature","geometry":{"type":"Point","coordinates":[80.3309188,15.8112417]},"properties":{"secretariatName":"CHIRALANAGAR","villageName":"CHIRALANAGAR","sdtname":"CHIRALA","dtname":"BAPATLA","stname":"ANDHRA PRADESH","country":"India"}},{"type":"Feature","geometry":{"type":"Point","coordinates":[80.3792241,15.8422713]},"properties":{"secretariatName":"EPURUPALEM2","villageName":"EPURUPALEM2","sdtname":"CHIRALA","dtname":"BAPATLA","stname":"ANDHRA PRADESH","country":"India"}},{"type":"Feature","geometry":{"type":"Point","coordinates":[80.3883072,15.8442884]},"properties":{"secretariatName":"THOTAVARIPALEM2","villageName":"THOTAVARIPALEM2","sdtname":"CHIRALA","dtname":"BAPATLA","stname":"ANDHRA PRADESH","country":"India"}},{"type":"Feature","geometry":{"type":"Point","coordinates":[80.3451224,15.8236668]},"properties":{"secretariatName":"GANDHINAGAR","villageName":"GANDHINAGAR","sdtname":"CHIRALA","dtname":"BAPATLA","stname":"ANDHRA PRADESH","country":"India"}},{"type":"Feature","geometry":{"type":"Point","coordinates":[80.3861,15.8486]},"properties":{"secretariatName":"EPURUPALEM1","villageName":"EPURUPALEM1","sdtname":"CHIRALA","dtname":"BAPATLA","stname":"ANDHRA PRADESH","country":"India"}},{"type":"Feature","geometry":{"type":"Point","coordinates":[80.391386,15.859147]},"properties":{"secretariatName":"EPURUPALEM4","villageName":"EPURUPALEM4","sdtname":"CHIRALA","dtname":"BAPATLA","stname":"ANDHRA PRADESH","country":"India"}},{"type":"Feature","geometry":{"type":"Point","coordinates":[80.407035,15.79861]},"properties":{"secretariatName":"VODAREVU2","villageName":"VODAREVU2","sdtname":"CHIRALA","dtname":"BAPATLA","stname":"ANDHRA PRADESH","country":"India"}},{"type":"Feature","geometry":{"type":"Point","coordinates":[80.3477126,15.8155629]},"properties":{"secretariatName":"RAMAKRISHNAPURAM2","villageName":"RAMAKRISHNAPURAM2","sdtname":"CHIRALA","dtname":"BAPATLA","stname":"ANDHRA PRADESH","country":"India"}},{"type":"Feature","geometry":{"type":"Point","coordinates":[80.464887,15.854979]},"properties":{"secretariatName":"DEVINUTHALA","villageName":"DEVINUTHALA","sdtname":"CHIRALA","dtname":"BAPATLA","stname":"ANDHRA PRADESH","country":"India"}},{"type":"Feature","geometry":{"type":"Point","coordinates":[80.38596,15.848616]},"properties":{"secretariatName":"EPURUPALEM3","villageName":"EPURUPALEM3","sdtname":"CHIRALA","dtname":"BAPATLA","stname":"ANDHRA PRADESH","country":"India"}},{"type":"Feature","geometry":{"type":"Point","coordinates":[80.398577,15.840447]},"properties":{"secretariatName":"THOTAVARIPALEM1","villageName":"THOTAVARIPALEM1","sdtname":"CHIRALA","dtname":"BAPATLA","stname":"ANDHRA PRADESH","country":"India"}},{"type":"Feature","geometry":{"type":"Point","coordinates":[80.336801,15.820514]},"properties":{"secretariatName":"KOTHAPALEM","villageName":"KOTHAPALEM","sdtname":"CHIRALA","dtname":"BAPATLA","stname":"ANDHRA PRADESH","country":"India"}},{"type":"Feature","geometry":{"type":"Point","coordinates":[80.4309081,15.8384023]},"properties":{"secretariatName":"GAVINIVARIPALEM1","villageName":"GAVINIVARIPALEM1","sdtname":"CHIRALA","dtname":"BAPATLA","stname":"ANDHRA PRADESH","country":"India"}},{"type":"Feature","geometry":{"type":"Point","coordinates":[80.37315,15.846644]},"properties":{"secretariatName":"VIJAYANAGARCOLONY","villageName":"VIJAYANAGARCOLONY","sdtname":"CHIRALA","dtname":"BAPATLA","stname":"ANDHRA PRADESH","country":"India"}},{"type":"Feature","geometry":{"type":"Point","coordinates":[80.3363042,15.8095099]},"properties":{"secretariatName":"DEVANGAPURI1","villageName":"DEVANGAPURI1","sdtname":"CHIRALA","dtname":"BAPATLA","stname":"ANDHRA PRADESH","country":"India"}},{"type":"Feature","geometry":{"type":"Point","coordinates":[80.3360516,15.809497]},"properties":{"secretariatName":"DEVANGAPURI2","villageName":"DEVANGAPURI2","sdtname":"CHIRALA","dtname":"BAPATLA","stname":"ANDHRA PRADESH","country":"India"}},{"type":"Feature","geometry":{"type":"Point","coordinates":[80.392257,15.826096]},"properties":{"secretariatName":"BURLAVARIPALEM","villageName":"BURLAVARIPALEM","sdtname":"CHIRALA","dtname":"BAPATLA","stname":"ANDHRA PRADESH","country":"India"}},{"type":"Feature","geometry":{"type":"Point","coordinates":[80.4095533,15.7986753]},"properties":{"secretariatName":"VODAREVU1","villageName":"VODAREVU1","sdtname":"CHIRALA","dtname":"BAPATLA","stname":"ANDHRA PRADESH","country":"India"}},{"type":"Feature","geometry":{"type":"Point","coordinates":[80.195189,15.9043921]},"properties":{"secretariatName":"IDUPULAPADU1","villageName":"IDUPULAPADU1","sdtname":"INKOLLU","dtname":"BAPATLA","stname":"ANDHRA PRADESH","country":"India"}},{"type":"Feature","geometry":{"type":"Point","coordinates":[80.2201979,15.8082462]},"properties":{"secretariatName":"INKOLLU4","villageName":"INKOLLU4","sdtname":"INKOLLU","dtname":"BAPATLA","stname":"ANDHRA PRADESH","country":"India"}},{"type":"Feature","geometry":{"type":"Point","coordinates":[80.1444284,15.8804709]},"properties":{"secretariatName":"NAGANDLA","villageName":"NAGANDLA","sdtname":"INKOLLU","dtname":"BAPATLA","stname":"ANDHRA PRADESH","country":"India"}},{"type":"Feature","geometry":{"type":"Point","coordinates":[80.193716,15.826427]},"properties":{"secretariatName":"INKOLLU1","villageName":"INKOLLU1","sdtname":"INKOLLU","dtname":"BAPATLA","stname":"ANDHRA PRADESH","country":"India"}},{"type":"Feature","geometry":{"type":"Point","coordinates":[80.169595,15.744157]},"properties":{"secretariatName":"DUDDUKURU","villageName":"DUDDUKURU","sdtname":"INKOLLU","dtname":"BAPATLA","stname":"ANDHRA PRADESH","country":"India"}},{"type":"Feature","geometry":{"type":"Point","coordinates":[80.2073002,15.7856022]},"properties":{"secretariatName":"BHIMAVARAM","villageName":"BHIMAVARAM","sdtname":"INKOLLU","dtname":"BAPATLA","stname":"ANDHRA PRADESH","country":"India"}},{"type":"Feature","geometry":{"type":"Point","coordinates":[80.2271461,15.9043688]},"properties":{"secretariatName":"PUSAPASDU","villageName":"PUSAPASDU","sdtname":"INKOLLU","dtname":"BAPATLA","stname":"ANDHRA PRADESH","country":"India"}},{"type":"Feature","geometry":{"type":"Point","coordinates":[80.164185,15.80918]},"properties":{"secretariatName":"GANGAVARAM","villageName":"GANGAVARAM","sdtname":"INKOLLU","dtname":"BAPATLA","stname":"ANDHRA PRADESH","country":"India"}},{"type":"Feature","geometry":{"type":"Point","coordinates":[80.1757476,15.7822279]},"properties":{"secretariatName":"KONIKI","villageName":"KONIKI","sdtname":"INKOLLU","dtname":"BAPATLA","stname":"ANDHRA PRADESH","country":"India"}},{"type":"Feature","geometry":{"type":"Point","coordinates":[80.1963004,15.9047376]},"properties":{"secretariatName":"IDUPULAPADU2","villageName":"IDUPULAPADU2","sdtname":"INKOLLU","dtname":"BAPATLA","stname":"ANDHRA PRADESH","country":"India"}},{"type":"Feature","geometry":{"type":"Point","coordinates":[80.1883872,15.8268965]},"properties":{"secretariatName":"INKOLLU2","villageName":"INKOLLU2","sdtname":"INKOLLU","dtname":"BAPATLA","stname":"ANDHRA PRADESH","country":"India"}},{"type":"Feature","geometry":{"type":"Point","coordinates":[80.16461257,15.85217009]},"properties":{"secretariatName":"PAVULURU2","villageName":"PAVULURU2","sdtname":"INKOLLU","dtname":"BAPATLA","stname":"ANDHRA PRADESH","country":"India"}},{"type":"Feature","geometry":{"type":"Point","coordinates":[80.1883872,15.8268965]},"properties":{"secretariatName":"INKOLLU3","villageName":"INKOLLU3","sdtname":"INKOLLU","dtname":"BAPATLA","stname":"ANDHRA PRADESH","country":"India"}},{"type":"Feature","geometry":{"type":"Point","coordinates":[80.222346,15.912275]},"properties":{"secretariatName":"VANKAYALAPADU","villageName":"VANKAYALAPADU","sdtname":"INKOLLU","dtname":"BAPATLA","stname":"ANDHRA PRADESH","country":"India"}},{"type":"Feature","geometry":{"type":"Point","coordinates":[80.166267,15.850325]},"properties":{"secretariatName":"PAVULURU1","villageName":"PAVULURU1","sdtname":"INKOLLU","dtname":"BAPATLA","stname":"ANDHRA PRADESH","country":"India"}},{"type":"Feature","geometry":{"type":"Point","coordinates":[80.126146,15.843883]},"properties":{"secretariatName":"KALLAMVARIPALEM","villageName":"KALLAMVARIPALEM","sdtname":"JANAKAVARAMPANGULURU","dtname":"BAPATLA","stname":"ANDHRA PRADESH","country":"India"}},{"type":"Feature","geometry":{"type":"Point","coordinates":[80.105977,15.816017]},"properties":{"secretariatName":"PANGULURU2","villageName":"PANGULURU2","sdtname":"JANAKAVARAMPANGULURU","dtname":"BAPATLA","stname":"ANDHRA PRADESH","country":"India"}},{"type":"Feature","geometry":{"type":"Point","coordinates":[80.097446,15.779904]},"properties":{"secretariatName":"T.KOPPERAPADU","villageName":"T.KOPPERAPADU","sdtname":"JANAKAVARAMPANGULURU","dtname":"BAPATLA","stname":"ANDHRA PRADESH","country":"India"}},{"type":"Feature","geometry":{"type":"Point","coordinates":[80.086624,15.869928]},"properties":{"secretariatName":"KONDAMANJULURU","villageName":"KONDAMANJULURU","sdtname":"JANAKAVARAMPANGULURU","dtname":"BAPATLA","stname":"ANDHRA PRADESH","country":"India"}},{"type":"Feature","geometry":{"type":"Point","coordinates":[80.0666,15.8308]},"properties":{"secretariatName":"KONDAMURU","villageName":"KONDAMURU","sdtname":"JANAKAVARAMPANGULURU","dtname":"BAPATLA","stname":"ANDHRA PRADESH","country":"India"}},{"type":"Feature","geometry":{"type":"Point","coordinates":[80.0469283,15.9070805]},"properties":{"secretariatName":"RAMAKURU","villageName":"RAMAKURU","sdtname":"JANAKAVARAMPANGULURU","dtname":"BAPATLA","stname":"ANDHRA PRADESH","country":"India"}},{"type":"Feature","geometry":{"type":"Point","coordinates":[80.0421022,15.8038682]},"properties":{"secretariatName":"RENANGIVARAM","villageName":"RENANGIVARAM","sdtname":"JANAKAVARAMPANGULURU","dtname":"BAPATLA","stname":"ANDHRA PRADESH","country":"India"}},{"type":"Feature","geometry":{"type":"Point","coordinates":[80.064672,15.789423]},"properties":{"secretariatName":"ALAVALAPADU","villageName":"ALAVALAPADU","sdtname":"JANAKAVARAMPANGULURU","dtname":"BAPATLA","stname":"ANDHRA PRADESH","country":"India"}},{"type":"Feature","geometry":{"type":"Point","coordinates":[80.138361,15.78686]},"properties":{"secretariatName":"CHANDALURU","villageName":"CHANDALURU","sdtname":"JANAKAVARAMPANGULURU","dtname":"BAPATLA","stname":"ANDHRA PRADESH","country":"India"}},{"type":"Feature","geometry":{"type":"Point","coordinates":[80.054101,15.863564]},"properties":{"secretariatName":"BYTAMANJULURU","villageName":"BYTAMANJULURU","sdtname":"JANAKAVARAMPANGULURU","dtname":"BAPATLA","stname":"ANDHRA PRADESH","country":"India"}},{"type":"Feature","geometry":{"type":"Point","coordinates":[80.0504853,15.8447263]},"properties":{"secretariatName":"MUPPAVARAM","villageName":"MUPPAVARAM","sdtname":"JANAKAVARAMPANGULURU","dtname":"BAPATLA","stname":"ANDHRA PRADESH","country":"India"}},{"type":"Feature","geometry":{"type":"Point","coordinates":[80.1431091,15.8463155]},"properties":{"secretariatName":"BUDAWADA","villageName":"BUDAWADA","sdtname":"JANAKAVARAMPANGULURU","dtname":"BAPATLA","stname":"ANDHRA PRADESH","country":"India"}},{"type":"Feature","geometry":{"type":"Point","coordinates":[80.093565,15.84146]},"properties":{"secretariatName":"KOTAPADU","villageName":"KOTAPADU","sdtname":"JANAKAVARAMPANGULURU","dtname":"BAPATLA","stname":"ANDHRA PRADESH","country":"India"}},{"type":"Feature","geometry":{"type":"Point","coordinates":[80.1091824,15.8157339]},"properties":{"secretariatName":"PANGULURU1","villageName":"PANGULURU1","sdtname":"JANAKAVARAMPANGULURU","dtname":"BAPATLA","stname":"ANDHRA PRADESH","country":"India"}},{"type":"Feature","geometry":{"type":"Point","coordinates":[80.25266,15.913196]},"properties":{"secretariatName":"ADIPUDI","villageName":"ADIPUDI","sdtname":"KARAMCHEDU","dtname":"BAPATLA","stname":"ANDHRA PRADESH","country":"India"}},{"type":"Feature","geometry":{"type":"Point","coordinates":[80.2483696,15.8466261]},"properties":{"secretariatName":"KODAVALIVARIPALEM","villageName":"KODAVALIVARIPALEM","sdtname":"KARAMCHEDU","dtname":"BAPATLA","stname":"ANDHRA PRADESH","country":"India"}},{"type":"Feature","geometry":{"type":"Point","coordinates":[80.346926,15.918883]},"properties":{"secretariatName":"KUMKALAMARRU2","villageName":"KUMKALAMARRU2","sdtname":"KARAMCHEDU","dtname":"BAPATLA","stname":"ANDHRA PRADESH","country":"India"}},{"type":"Feature","geometry":{"type":"Point","coordinates":[80.232728,15.844438]},"properties":{"secretariatName":"JARUBULAVARIPALEM","villageName":"JARUBULAVARIPALEM","sdtname":"KARAMCHEDU","dtname":"BAPATLA","stname":"ANDHRA PRADESH","country":"India"}},{"type":"Feature","geometry":{"type":"Point","coordinates":[80.2572705,15.8882861]},"properties":{"secretariatName":"THIMIDITHAPADU","villageName":"THIMIDITHAPADU","sdtname":"KARAMCHEDU","dtname":"BAPATLA","stname":"ANDHRA PRADESH","country":"India"}},{"type":"Feature","geometry":{"type":"Point","coordinates":[80.3509926,15.9163056]},"properties":{"secretariatName":"KUMKALAMARRU1","villageName":"KUMKALAMARRU1","sdtname":"KARAMCHEDU","dtname":"BAPATLA","stname":"ANDHRA PRADESH","country":"India"}},{"type":"Feature","geometry":{"type":"Point","coordinates":[80.319042,15.8817196]},"properties":{"secretariatName":"KARAMCHEDU1","villageName":"KARAMCHEDU1","sdtname":"KARAMCHEDU","dtname":"BAPATLA","stname":"ANDHRA PRADESH","country":"India"}},{"type":"Feature","geometry":{"type":"Point","coordinates":[80.3144285,15.8866628]},"properties":{"secretariatName":"KARAMCHEDU2","villageName":"KARAMCHEDU2","sdtname":"KARAMCHEDU","dtname":"BAPATLA","stname":"ANDHRA PRADESH","country":"India"}},{"type":"Feature","geometry":{"type":"Point","coordinates":[80.319107,15.881647]},"properties":{"secretariatName":"KARAMCHEDU3","villageName":"KARAMCHEDU3","sdtname":"KARAMCHEDU","dtname":"BAPATLA","stname":"ANDHRA PRADESH","country":"India"}},{"type":"Feature","geometry":{"type":"Point","coordinates":[80.2850112,15.8523885]},"properties":{"secretariatName":"SWARNA1","villageName":"SWARNA1","sdtname":"KARAMCHEDU","dtname":"BAPATLA","stname":"ANDHRA PRADESH","country":"India"}},{"type":"Feature","geometry":{"type":"Point","coordinates":[80.2096475,15.8740072]},"properties":{"secretariatName":"DAGGUBADU","villageName":"DAGGUBADU","sdtname":"KARAMCHEDU","dtname":"BAPATLA","stname":"ANDHRA PRADESH","country":"India"}},{"type":"Feature","geometry":{"type":"Point","coordinates":[80.284089,15.853138]},"properties":{"secretariatName":"SWARNA2","villageName":"SWARNA2","sdtname":"KARAMCHEDU","dtname":"BAPATLA","stname":"ANDHRA PRADESH","country":"India"}},{"type":"Feature","geometry":{"type":"Point","coordinates":[80.5441217,15.9517413]},"properties":{"secretariatName":"YETRAVARIPALEM","villageName":"YETRAVARIPALEM","sdtname":"KARLAPALEM","dtname":"BAPATLA","stname":"ANDHRA PRADESH","country":"India"}},{"type":"Feature","geometry":{"type":"Point","coordinates":[80.5641563,15.9094271]},"properties":{"secretariatName":"PEDAGOLLAPALAM","villageName":"PEDAGOLLAPALAM","sdtname":"KARLAPALEM","dtname":"BAPATLA","stname":"ANDHRA PRADESH","country":"India"}},{"type":"Feature","geometry":{"type":"Point","coordinates":[80.5488799,15.8858734]},"properties":{"secretariatName":"PERALI","villageName":"PERALI","sdtname":"KARLAPALEM","dtname":"BAPATLA","stname":"ANDHRA PRADESH","country":"India"}},{"type":"Feature","geometry":{"type":"Point","coordinates":[80.583486,15.922072]},"properties":{"secretariatName":"GANAPAVARAM","villageName":"GANAPAVARAM","sdtname":"KARLAPALEM","dtname":"BAPATLA","stname":"ANDHRA PRADESH","country":"India"}},{"type":"Feature","geometry":{"type":"Point","coordinates":[80.5615038,15.9705153]},"properties":{"secretariatName":"YAZALI","villageName":"YAZALI","sdtname":"KARLAPALEM","dtname":"BAPATLA","stname":"ANDHRA PRADESH","country":"India"}},{"type":"Feature","geometry":{"type":"Point","coordinates":[80.554955,15.921935]},"properties":{"secretariatName":"CHINTAYAPALEM","villageName":"CHINTAYAPALEM","sdtname":"KARLAPALEM","dtname":"BAPATLA","stname":"ANDHRA PRADESH","country":"India"}},{"type":"Feature","geometry":{"type":"Point","coordinates":[null,80.537324]},"properties":{"secretariatName":"\"PATHANANDAYAPALEM","villageName":"15.948663","sdtname":"\"PATHANANDAYAPALEM","dtname":"\"","stname":"KARLAPALEM","country":"BAPATLA"}},{"type":"Feature","geometry":{"type":"Point","coordinates":[80.587125,15.885729]},"properties":{"secretariatName":"THUMMALAPALLI","villageName":"THUMMALAPALLI","sdtname":"KARLAPALEM","dtname":"BAPATLA","stname":"ANDHRA PRADESH","country":"India"}},{"type":"Feature","geometry":{"type":"Point","coordinates":[null,80.58987]},"properties":{"secretariatName":"\"DAMMANNAVARIPALEM","villageName":"15.970099","sdtname":"\"DAMMANNAVARIPALEM","dtname":"\"","stname":"KARLAPALEM","country":"BAPATLA"}},{"type":"Feature","geometry":{"type":"Point","coordinates":[80.5504403,15.935702]},"properties":{"secretariatName":"KARLAPALEM","villageName":"KARLAPALEM","sdtname":"KARLAPALEM","dtname":"BAPATLA","stname":"ANDHRA PRADESH","country":"India"}},{"type":"Feature","geometry":{"type":"Point","coordinates":[80.606501,15.899528]},"properties":{"secretariatName":"PEDAPULUGUVARIPALEM","villageName":"PEDAPULUGUVARIPALEM","sdtname":"KARLAPALEM","dtname":"BAPATLA","stname":"ANDHRA PRADESH","country":"India"}},{"type":"Feature","geometry":{"type":"Point","coordinates":[80.51778,15.937545]},"properties":{"secretariatName":"NALLAMOTHUVARIPALEM","villageName":"NALLAMOTHUVARIPALEM","sdtname":"KARLAPALEM","dtname":"BAPATLA","stname":"ANDHRA PRADESH","country":"India"}},{"type":"Feature","geometry":{"type":"Point","coordinates":[80.571593,15.979104]},"properties":{"secretariatName":"DUNDIVARIPALEM","villageName":"DUNDIVARIPALEM","sdtname":"KARLAPALEM","dtname":"BAPATLA","stname":"ANDHRA PRADESH","country":"India"}},{"type":"Feature","geometry":{"type":"Point","coordinates":[80.533138,15.894895]},"properties":{"secretariatName":"SAMMETAVARIPALEM","villageName":"SAMMETAVARIPALEM","sdtname":"KARLAPALEM","dtname":"BAPATLA","stname":"ANDHRA PRADESH","country":"India"}},{"type":"Feature","geometry":{"type":"Point","coordinates":[80.5691086,15.9556102]},"properties":{"secretariatName":"BUDDAM","villageName":"BUDDAM","sdtname":"KARLAPALEM","dtname":"BAPATLA","stname":"ANDHRA PRADESH","country":"India"}},{"type":"Feature","geometry":{"type":"Point","coordinates":[80.7692921,16.2330311]},"properties":{"secretariatName":"ANANTHAVARAM","villageName":"ANANTHAVARAM","sdtname":"KOLLURU","dtname":"BAPATLA","stname":"ANDHRA PRADESH","country":"India"}},{"type":"Feature","geometry":{"type":"Point","coordinates":[80.775267,16.199106]},"properties":{"secretariatName":"KRAPA","villageName":"KRAPA","sdtname":"KOLLURU","dtname":"BAPATLA","stname":"ANDHRA PRADESH","country":"India"}},{"type":"Feature","geometry":{"type":"Point","coordinates":[80.8055066,16.2221531]},"properties":{"secretariatName":"IPURULANKA","villageName":"IPURULANKA","sdtname":"KOLLURU","dtname":"BAPATLA","stname":"ANDHRA PRADESH","country":"India"}},{"type":"Feature","geometry":{"type":"Point","coordinates":[80.815231,16.149497]},"properties":{"secretariatName":"DONEPUDI","villageName":"DONEPUDI","sdtname":"KOLLURU","dtname":"BAPATLA","stname":"ANDHRA PRADESH","country":"India"}},{"type":"Feature","geometry":{"type":"Point","coordinates":[80.831819,16.157239]},"properties":{"secretariatName":"POTHARLANKA","villageName":"POTHARLANKA","sdtname":"KOLLURU","dtname":"BAPATLA","stname":"ANDHRA PRADESH","country":"India"}},{"type":"Feature","geometry":{"type":"Point","coordinates":[80.7845763,16.2305852]},"properties":{"secretariatName":"CHILUMURU","villageName":"CHILUMURU","sdtname":"KOLLURU","dtname":"BAPATLA","stname":"ANDHRA PRADESH","country":"India"}},{"type":"Feature","geometry":{"type":"Point","coordinates":[80.8003914,16.1841201]},"properties":{"secretariatName":"KOLLURU-1","villageName":"KOLLURU-1","sdtname":"KOLLURU","dtname":"BAPATLA","stname":"ANDHRA PRADESH","country":"India"}},{"type":"Feature","geometry":{"type":"Point","coordinates":[80.8003894,16.1841272]},"properties":{"secretariatName":"KOLLURU-2","villageName":"KOLLURU-2","sdtname":"KOLLURU","dtname":"BAPATLA","stname":"ANDHRA PRADESH","country":"India"}},{"type":"Feature","geometry":{"type":"Point","coordinates":[80.853842,16.107235]},"properties":{"secretariatName":"JVULAPALEM","villageName":"JVULAPALEM","sdtname":"KOLLURU","dtname":"BAPATLA","stname":"ANDHRA PRADESH","country":"India"}},{"type":"Feature","geometry":{"type":"Point","coordinates":[80.796558,16.130261]},"properties":{"secretariatName":"CHINAPULIVARRU","villageName":"CHINAPULIVARRU","sdtname":"KOLLURU","dtname":"BAPATLA","stname":"ANDHRA PRADESH","country":"India"}},{"type":"Feature","geometry":{"type":"Point","coordinates":[80.7874267,16.2213978]},"properties":{"secretariatName":"IPURU","villageName":"IPURU","sdtname":"KOLLURU","dtname":"BAPATLA","stname":"ANDHRA PRADESH","country":"India"}},{"type":"Feature","geometry":{"type":"Point","coordinates":[80.834199,16.118485]},"properties":{"secretariatName":"KISHKINDAPALEM","villageName":"KISHKINDAPALEM","sdtname":"KOLLURU","dtname":"BAPATLA","stname":"ANDHRA PRADESH","country":"India"}},{"type":"Feature","geometry":{"type":"Point","coordinates":[80.8088131,16.1945006]},"properties":{"secretariatName":"PESARLANKA","villageName":"PESARLANKA","sdtname":"KOLLURU","dtname":"BAPATLA","stname":"ANDHRA PRADESH","country":"India"}},{"type":"Feature","geometry":{"type":"Point","coordinates":[80.828714,16.183332]},"properties":{"secretariatName":"GAJULANKA","villageName":"GAJULANKA","sdtname":"KOLLURU","dtname":"BAPATLA","stname":"ANDHRA PRADESH","country":"India"}},{"type":"Feature","geometry":{"type":"Point","coordinates":[80.764995,16.163237]},"properties":{"secretariatName":"RAVIKAMPADU","villageName":"RAVIKAMPADU","sdtname":"KOLLURU","dtname":"BAPATLA","stname":"ANDHRA PRADESH","country":"India"}},{"type":"Feature","geometry":{"type":"Point","coordinates":[80.800291,16.1846759]},"properties":{"secretariatName":"KOLLURU-3","villageName":"KOLLURU-3","sdtname":"KOLLURU","dtname":"BAPATLA","stname":"ANDHRA PRADESH","country":"India"}},{"type":"Feature","geometry":{"type":"Point","coordinates":[80.075963,15.755774]},"properties":{"secretariatName":"KORISAPADU2","villageName":"KORISAPADU2","sdtname":"KORISAPADU","dtname":"BAPATLA","stname":"ANDHRA PRADESH","country":"India"}},{"type":"Feature","geometry":{"type":"Point","coordinates":[80.014181,15.753551]},"properties":{"secretariatName":"BODDUVANIPALEM","villageName":"BODDUVANIPALEM","sdtname":"KORISAPADU","dtname":"BAPATLA","stname":"ANDHRA PRADESH","country":"India"}},{"type":"Feature","geometry":{"type":"Point","coordinates":[80.042029,15.753269]},"properties":{"secretariatName":"KORISAPADU1","villageName":"KORISAPADU1","sdtname":"KORISAPADU","dtname":"BAPATLA","stname":"ANDHRA PRADESH","country":"India"}},{"type":"Feature","geometry":{"type":"Point","coordinates":[80.0540162,15.7762171]},"properties":{"secretariatName":"P.GUDIPADU","villageName":"P.GUDIPADU","sdtname":"KORISAPADU","dtname":"BAPATLA","stname":"ANDHRA PRADESH","country":"India"}},{"type":"Feature","geometry":{"type":"Point","coordinates":[80.0826239,15.7389309]},"properties":{"secretariatName":"RAVINUTHALA1","villageName":"RAVINUTHALA1","sdtname":"KORISAPADU","dtname":"BAPATLA","stname":"ANDHRA PRADESH","country":"India"}},{"type":"Feature","geometry":{"type":"Point","coordinates":[80.0259873,15.7222742]},"properties":{"secretariatName":"MEDARAMETLA3","villageName":"MEDARAMETLA3","sdtname":"KORISAPADU","dtname":"BAPATLA","stname":"ANDHRA PRADESH","country":"India"}},{"type":"Feature","geometry":{"type":"Point","coordinates":[80.0555611,15.7096682]},"properties":{"secretariatName":"DAIVALARAVURU","villageName":"DAIVALARAVURU","sdtname":"KORISAPADU","dtname":"BAPATLA","stname":"ANDHRA PRADESH","country":"India"}},{"type":"Feature","geometry":{"type":"Point","coordinates":[80.1106691,15.7123426]},"properties":{"secretariatName":"PAMIDIPADU1","villageName":"PAMIDIPADU1","sdtname":"KORISAPADU","dtname":"BAPATLA","stname":"ANDHRA PRADESH","country":"India"}},{"type":"Feature","geometry":{"type":"Point","coordinates":[80.1120893,15.7110562]},"properties":{"secretariatName":"PAMIDIPADU2","villageName":"PAMIDIPADU2","sdtname":"KORISAPADU","dtname":"BAPATLA","stname":"ANDHRA PRADESH","country":"India"}},{"type":"Feature","geometry":{"type":"Point","coordinates":[79.98337,15.72412]},"properties":{"secretariatName":"THAMMAVARAM","villageName":"THAMMAVARAM","sdtname":"KORISAPADU","dtname":"BAPATLA","stname":"ANDHRA PRADESH","country":"India"}},{"type":"Feature","geometry":{"type":"Point","coordinates":[80.0831644,15.7400614]},"properties":{"secretariatName":"RAVINUTHALA2","villageName":"RAVINUTHALA2","sdtname":"KORISAPADU","dtname":"BAPATLA","stname":"ANDHRA PRADESH","country":"India"}},{"type":"Feature","geometry":{"type":"Point","coordinates":[80.02585,15.722254]},"properties":{"secretariatName":"MEDARAMETLA1","villageName":"MEDARAMETLA1","sdtname":"KORISAPADU","dtname":"BAPATLA","stname":"ANDHRA PRADESH","country":"India"}},{"type":"Feature","geometry":{"type":"Point","coordinates":[80.145661,15.716238]},"properties":{"secretariatName":"RACHAPUDI","villageName":"RACHAPUDI","sdtname":"KORISAPADU","dtname":"BAPATLA","stname":"ANDHRA PRADESH","country":"India"}},{"type":"Feature","geometry":{"type":"Point","coordinates":[80.02585,15.722254]},"properties":{"secretariatName":"MEDARAMETLA2","villageName":"MEDARAMETLA2","sdtname":"KORISAPADU","dtname":"BAPATLA","stname":"ANDHRA PRADESH","country":"India"}},{"type":"Feature","geometry":{"type":"Point","coordinates":[80.018106,15.6944]},"properties":{"secretariatName":"THIMMANAPALEM","villageName":"THIMMANAPALEM","sdtname":"KORISAPADU","dtname":"BAPATLA","stname":"ANDHRA PRADESH","country":"India"}},{"type":"Feature","geometry":{"type":"Point","coordinates":[80.11207,15.929643]},"properties":{"secretariatName":"CHIMMIRIBANDA","villageName":"CHIMMIRIBANDA","sdtname":"MARTUR","dtname":"BAPATLA","stname":"ANDHRA PRADESH","country":"India"}},{"type":"Feature","geometry":{"type":"Point","coordinates":[80.141646,15.913699]},"properties":{"secretariatName":"DRONADULA2","villageName":"DRONADULA2","sdtname":"MARTUR","dtname":"BAPATLA","stname":"ANDHRA PRADESH","country":"India"}},{"type":"Feature","geometry":{"type":"Point","coordinates":[80.0935123,16.0066035]},"properties":{"secretariatName":"RAJUPALEM","villageName":"RAJUPALEM","sdtname":"MARTUR","dtname":"BAPATLA","stname":"ANDHRA PRADESH","country":"India"}},{"type":"Feature","geometry":{"type":"Point","coordinates":[80.101852,15.981955]},"properties":{"secretariatName":"MARTUR4","villageName":"MARTUR4","sdtname":"MARTUR","dtname":"BAPATLA","stname":"ANDHRA PRADESH","country":"India"}},{"type":"Feature","geometry":{"type":"Point","coordinates":[80.1406088,15.95432016]},"properties":{"secretariatName":"BOBBEPALLI","villageName":"BOBBEPALLI","sdtname":"MARTUR","dtname":"BAPATLA","stname":"ANDHRA PRADESH","country":"India"}},{"type":"Feature","geometry":{"type":"Point","coordinates":[80.0767154,15.9227206]},"properties":{"secretariatName":"KONANKI","villageName":"KONANKI","sdtname":"MARTUR","dtname":"BAPATLA","stname":"ANDHRA PRADESH","country":"India"}},{"type":"Feature","geometry":{"type":"Point","coordinates":[80.0470204,15.9245055]},"properties":{"secretariatName":"VALAPARLA1","villageName":"VALAPARLA1","sdtname":"MARTUR","dtname":"BAPATLA","stname":"ANDHRA PRADESH","country":"India"}},{"type":"Feature","geometry":{"type":"Point","coordinates":[80.109214,15.9845168]},"properties":{"secretariatName":"MARTUR2","villageName":"MARTUR2","sdtname":"MARTUR","dtname":"BAPATLA","stname":"ANDHRA PRADESH","country":"India"}},{"type":"Feature","geometry":{"type":"Point","coordinates":[80.09999,15.9477]},"properties":{"secretariatName":"JONNATHALI","villageName":"JONNATHALI","sdtname":"MARTUR","dtname":"BAPATLA","stname":"ANDHRA PRADESH","country":"India"}},{"type":"Feature","geometry":{"type":"Point","coordinates":[80.086747,15.879238]},"properties":{"secretariatName":"BOLLAPALLI","villageName":"BOLLAPALLI","sdtname":"MARTUR","dtname":"BAPATLA","stname":"ANDHRA PRADESH","country":"India"}},{"type":"Feature","geometry":{"type":"Point","coordinates":[80.0746203,15.94331]},"properties":{"secretariatName":"DARSI","villageName":"DARSI","sdtname":"MARTUR","dtname":"BAPATLA","stname":"ANDHRA PRADESH","country":"India"}},{"type":"Feature","geometry":{"type":"Point","coordinates":[80.051289,15.9256189]},"properties":{"secretariatName":"VALAPARLA2","villageName":"VALAPARLA2","sdtname":"MARTUR","dtname":"BAPATLA","stname":"ANDHRA PRADESH","country":"India"}},{"type":"Feature","geometry":{"type":"Point","coordinates":[80.1091477,15.9857589]},"properties":{"secretariatName":"MARTUR1","villageName":"MARTUR1","sdtname":"MARTUR","dtname":"BAPATLA","stname":"ANDHRA PRADESH","country":"India"}},{"type":"Feature","geometry":{"type":"Point","coordinates":[80.12094844,15.95030748]},"properties":{"secretariatName":"RAJUGARIPALEM","villageName":"RAJUGARIPALEM","sdtname":"MARTUR","dtname":"BAPATLA","stname":"ANDHRA PRADESH","country":"India"}},{"type":"Feature","geometry":{"type":"Point","coordinates":[80.1031,15.8915]},"properties":{"secretariatName":"KOLALAPUDI","villageName":"KOLALAPUDI","sdtname":"MARTUR","dtname":"BAPATLA","stname":"ANDHRA PRADESH","country":"India"}},{"type":"Feature","geometry":{"type":"Point","coordinates":[80.055676,15.984057]},"properties":{"secretariatName":"NAGARAJUPALLI","villageName":"NAGARAJUPALLI","sdtname":"MARTUR","dtname":"BAPATLA","stname":"ANDHRA PRADESH","country":"India"}},{"type":"Feature","geometry":{"type":"Point","coordinates":[80.1418361,15.9140179]},"properties":{"secretariatName":"DRONADULA1","villageName":"DRONADULA1","sdtname":"MARTUR","dtname":"BAPATLA","stname":"ANDHRA PRADESH","country":"India"}},{"type":"Feature","geometry":{"type":"Point","coordinates":[80.09779278,15.97683213]},"properties":{"secretariatName":"MARTUR3","villageName":"MARTUR3","sdtname":"MARTUR","dtname":"BAPATLA","stname":"ANDHRA PRADESH","country":"India"}},{"type":"Feature","geometry":{"type":"Point","coordinates":[80.793351,15.98111]},"properties":{"secretariatName":"MANTRIPALEM","villageName":"MANTRIPALEM","sdtname":"NAGARAM","dtname":"BAPATLA","stname":"ANDHRA PRADESH","country":"India"}},{"type":"Feature","geometry":{"type":"Point","coordinates":[80.7244789,16.0017403]},"properties":{"secretariatName":"NAGARAM","villageName":"NAGARAM","sdtname":"NAGARAM","dtname":"BAPATLA","stname":"ANDHRA PRADESH","country":"India"}},{"type":"Feature","geometry":{"type":"Point","coordinates":[80.6950717,15.9719967]},"properties":{"secretariatName":"PEDAMATLAPUDI","villageName":"PEDAMATLAPUDI","sdtname":"NAGARAM","dtname":"BAPATLA","stname":"ANDHRA PRADESH","country":"India"}},{"type":"Feature","geometry":{"type":"Point","coordinates":[80.7026911,16.0035912]},"properties":{"secretariatName":"PUDIVADA","villageName":"PUDIVADA","sdtname":"NAGARAM","dtname":"BAPATLA","stname":"ANDHRA PRADESH","country":"India"}},{"type":"Feature","geometry":{"type":"Point","coordinates":[80.7247333,15.9843739]},"properties":{"secretariatName":"EDUPALLI","villageName":"EDUPALLI","sdtname":"NAGARAM","dtname":"BAPATLA","stname":"ANDHRA PRADESH","country":"India"}},{"type":"Feature","geometry":{"type":"Point","coordinates":[80.757508,16.061115]},"properties":{"secretariatName":"PEDDAVARAM","villageName":"PEDDAVARAM","sdtname":"NAGARAM","dtname":"BAPATLA","stname":"ANDHRA PRADESH","country":"India"}},{"type":"Feature","geometry":{"type":"Point","coordinates":[80.776127,15.984534]},"properties":{"secretariatName":"ALLAPARRU","villageName":"ALLAPARRU","sdtname":"NAGARAM","dtname":"BAPATLA","stname":"ANDHRA PRADESH","country":"India"}},{"type":"Feature","geometry":{"type":"Point","coordinates":[80.6465743,15.953458]},"properties":{"secretariatName":"PEDAPALLI","villageName":"PEDAPALLI","sdtname":"NAGARAM","dtname":"BAPATLA","stname":"ANDHRA PRADESH","country":"India"}},{"type":"Feature","geometry":{"type":"Point","coordinates":[80.738685,16.036808]},"properties":{"secretariatName":"ADDANKIVARIPALEM","villageName":"ADDANKIVARIPALEM","sdtname":"NAGARAM","dtname":"BAPATLA","stname":"ANDHRA PRADESH","country":"India"}},{"type":"Feature","geometry":{"type":"Point","coordinates":[80.7980611,16.0084577]},"properties":{"secretariatName":"SAJJAVARIPALEM","villageName":"SAJJAVARIPALEM","sdtname":"NAGARAM","dtname":"BAPATLA","stname":"ANDHRA PRADESH","country":"India"}},{"type":"Feature","geometry":{"type":"Point","coordinates":[80.6793321,15.9682299]},"properties":{"secretariatName":"CHINAMATLAPUDI","villageName":"CHINAMATLAPUDI","sdtname":"NAGARAM","dtname":"BAPATLA","stname":"ANDHRA PRADESH","country":"India"}},{"type":"Feature","geometry":{"type":"Point","coordinates":[80.766211,16.008032]},"properties":{"secretariatName":"YELETIPALEM","villageName":"YELETIPALEM","sdtname":"NAGARAM","dtname":"BAPATLA","stname":"ANDHRA PRADESH","country":"India"}},{"type":"Feature","geometry":{"type":"Point","coordinates":[80.7675822,16.0357049]},"properties":{"secretariatName":"DHULIPUDI(N)","villageName":"DHULIPUDI(N)","sdtname":"NAGARAM","dtname":"BAPATLA","stname":"ANDHRA PRADESH","country":"India"}},{"type":"Feature","geometry":{"type":"Point","coordinates":[80.75288,16.00569]},"properties":{"secretariatName":"BORAMADIGAPALLI","villageName":"BORAMADIGAPALLI","sdtname":"NAGARAM","dtname":"BAPATLA","stname":"ANDHRA PRADESH","country":"India"}},{"type":"Feature","geometry":{"type":"Point","coordinates":[80.733589,16.024687]},"properties":{"secretariatName":"DHULIPUDI(S)","villageName":"DHULIPUDI(S)","sdtname":"NAGARAM","dtname":"BAPATLA","stname":"ANDHRA PRADESH","country":"India"}},{"type":"Feature","geometry":{"type":"Point","coordinates":[80.782674,16.037284]},"properties":{"secretariatName":"KOLAGANIVARIPALEM","villageName":"KOLAGANIVARIPALEM","sdtname":"NAGARAM","dtname":"BAPATLA","stname":"ANDHRA PRADESH","country":"India"}},{"type":"Feature","geometry":{"type":"Point","coordinates":[80.673122,15.997617]},"properties":{"secretariatName":"SIRIPUDI","villageName":"SIRIPUDI","sdtname":"NAGARAM","dtname":"BAPATLA","stname":"ANDHRA PRADESH","country":"India"}},{"type":"Feature","geometry":{"type":"Point","coordinates":[80.79658616,15.88867362]},"properties":{"secretariatName":"KOTHAPALEM-1","villageName":"KOTHAPALEM-1","sdtname":"NIZAMPATNAM","dtname":"BAPATLA","stname":"ANDHRA PRADESH","country":"India"}},{"type":"Feature","geometry":{"type":"Point","coordinates":[80.776963,15.890242]},"properties":{"secretariatName":"KOTHAPALEM-2","villageName":"KOTHAPALEM-2","sdtname":"NIZAMPATNAM","dtname":"BAPATLA","stname":"ANDHRA PRADESH","country":"India"}},{"type":"Feature","geometry":{"type":"Point","coordinates":[80.741288,15.890326]},"properties":{"secretariatName":"DINDI","villageName":"DINDI","sdtname":"NIZAMPATNAM","dtname":"BAPATLA","stname":"ANDHRA PRADESH","country":"India"}},{"type":"Feature","geometry":{"type":"Point","coordinates":[80.7536698,15.9568006]},"properties":{"secretariatName":"GARUVUPALEM","villageName":"GARUVUPALEM","sdtname":"NIZAMPATNAM","dtname":"BAPATLA","stname":"ANDHRA PRADESH","country":"India"}},{"type":"Feature","geometry":{"type":"Point","coordinates":[80.728735,15.98906]},"properties":{"secretariatName":"MUTHUPALLI","villageName":"MUTHUPALLI","sdtname":"NIZAMPATNAM","dtname":"BAPATLA","stname":"ANDHRA PRADESH","country":"India"}},{"type":"Feature","geometry":{"type":"Point","coordinates":[80.688594,15.929838]},"properties":{"secretariatName":"AMUDALAPALLI","villageName":"AMUDALAPALLI","sdtname":"NIZAMPATNAM","dtname":"BAPATLA","stname":"ANDHRA PRADESH","country":"India"}},{"type":"Feature","geometry":{"type":"Point","coordinates":[80.7151023,15.9162101]},"properties":{"secretariatName":"KALLIPALEM","villageName":"KALLIPALEM","sdtname":"NIZAMPATNAM","dtname":"BAPATLA","stname":"ANDHRA PRADESH","country":"India"}},{"type":"Feature","geometry":{"type":"Point","coordinates":[80.67619286,15.93634053]},"properties":{"secretariatName":"BAVAJIPALEM","villageName":"BAVAJIPALEM","sdtname":"NIZAMPATNAM","dtname":"BAPATLA","stname":"ANDHRA PRADESH","country":"India"}},{"type":"Feature","geometry":{"type":"Point","coordinates":[80.771472,15.914611]},"properties":{"secretariatName":"ADAVULADEEVI-1","villageName":"ADAVULADEEVI-1","sdtname":"NIZAMPATNAM","dtname":"BAPATLA","stname":"ANDHRA PRADESH","country":"India"}},{"type":"Feature","geometry":{"type":"Point","coordinates":[80.7496596,15.9625182]},"properties":{"secretariatName":"KUCHINAPUDI","villageName":"KUCHINAPUDI","sdtname":"NIZAMPATNAM","dtname":"BAPATLA","stname":"ANDHRA PRADESH","country":"India"}},{"type":"Feature","geometry":{"type":"Point","coordinates":[80.668529,15.9054633]},"properties":{"secretariatName":"NIZAMPATNAM-1","villageName":"NIZAMPATNAM-1","sdtname":"NIZAMPATNAM","dtname":"BAPATLA","stname":"ANDHRA PRADESH","country":"India"}},{"type":"Feature","geometry":{"type":"Point","coordinates":[80.760779,15.98592]},"properties":{"secretariatName":"PALLAPATLA","villageName":"PALLAPATLA","sdtname":"NIZAMPATNAM","dtname":"BAPATLA","stname":"ANDHRA PRADESH","country":"India"}},{"type":"Feature","geometry":{"type":"Point","coordinates":[80.6650542,15.904347]},"properties":{"secretariatName":"NIZAMPATNAM-3","villageName":"NIZAMPATNAM-3","sdtname":"NIZAMPATNAM","dtname":"BAPATLA","stname":"ANDHRA PRADESH","country":"India"}},{"type":"Feature","geometry":{"type":"Point","coordinates":[80.724285,15.9347417]},"properties":{"secretariatName":"PREGNAM","villageName":"PREGNAM","sdtname":"NIZAMPATNAM","dtname":"BAPATLA","stname":"ANDHRA PRADESH","country":"India"}},{"type":"Feature","geometry":{"type":"Point","coordinates":[80.74442,15.958912]},"properties":{"secretariatName":"BORRAVARIPALEM","villageName":"BORRAVARIPALEM","sdtname":"NIZAMPATNAM","dtname":"BAPATLA","stname":"ANDHRA PRADESH","country":"India"}},{"type":"Feature","geometry":{"type":"Point","coordinates":[80.6605629,15.8982066]},"properties":{"secretariatName":"NIZAMPATNAM-2","villageName":"NIZAMPATNAM-2","sdtname":"NIZAMPATNAM","dtname":"BAPATLA","stname":"ANDHRA PRADESH","country":"India"}},{"type":"Feature","geometry":{"type":"Point","coordinates":[80.65311,15.9033]},"properties":{"secretariatName":"NIZAMPATNAM-4","villageName":"NIZAMPATNAM-4","sdtname":"NIZAMPATNAM","dtname":"BAPATLA","stname":"ANDHRA PRADESH","country":"India"}},{"type":"Feature","geometry":{"type":"Point","coordinates":[80.7704553,15.9165497]},"properties":{"secretariatName":"ADAVULADEEVI-2","villageName":"ADAVULADEEVI-2","sdtname":"NIZAMPATNAM","dtname":"BAPATLA","stname":"ANDHRA PRADESH","country":"India"}},{"type":"Feature","geometry":{"type":"Point","coordinates":[80.2739842,15.9674741]},"properties":{"secretariatName":"PARCHUR1","villageName":"PARCHUR1","sdtname":"PARCHUR","dtname":"BAPATLA","stname":"ANDHRA PRADESH","country":"India"}},{"type":"Feature","geometry":{"type":"Point","coordinates":[80.2779519,15.9642319]},"properties":{"secretariatName":"PARCHUR3","villageName":"PARCHUR3","sdtname":"PARCHUR","dtname":"BAPATLA","stname":"ANDHRA PRADESH","country":"India"}},{"type":"Feature","geometry":{"type":"Point","coordinates":[80.2487245,15.9651737]},"properties":{"secretariatName":"KOLLAVARIPALEM","villageName":"KOLLAVARIPALEM","sdtname":"PARCHUR","dtname":"BAPATLA","stname":"ANDHRA PRADESH","country":"India"}},{"type":"Feature","geometry":{"type":"Point","coordinates":[80.3789081,15.9932512]},"properties":{"secretariatName":"CHERUKURU1","villageName":"CHERUKURU1","sdtname":"PARCHUR","dtname":"BAPATLA","stname":"ANDHRA PRADESH","country":"India"}},{"type":"Feature","geometry":{"type":"Point","coordinates":[80.3517648,15.986582]},"properties":{"secretariatName":"RAMANAYAPALEM","villageName":"RAMANAYAPALEM","sdtname":"PARCHUR","dtname":"BAPATLA","stname":"ANDHRA PRADESH","country":"India"}},{"type":"Feature","geometry":{"type":"Point","coordinates":[80.35579,15.954261]},"properties":{"secretariatName":"POTHUKATLA","villageName":"POTHUKATLA","sdtname":"PARCHUR","dtname":"BAPATLA","stname":"ANDHRA PRADESH","country":"India"}},{"type":"Feature","geometry":{"type":"Point","coordinates":[80.35228,16.023403]},"properties":{"secretariatName":"GOLLAPUDI","villageName":"GOLLAPUDI","sdtname":"PARCHUR","dtname":"BAPATLA","stname":"ANDHRA PRADESH","country":"India"}},{"type":"Feature","geometry":{"type":"Point","coordinates":[80.277546,15.970192]},"properties":{"secretariatName":"PARCHUR2","villageName":"PARCHUR2","sdtname":"PARCHUR","dtname":"BAPATLA","stname":"ANDHRA PRADESH","country":"India"}},{"type":"Feature","geometry":{"type":"Point","coordinates":[80.229347,16.029507]},"properties":{"secretariatName":"ANNAMBOTLAVARIPALEM","villageName":"ANNAMBOTLAVARIPALEM","sdtname":"PARCHUR","dtname":"BAPATLA","stname":"ANDHRA PRADESH","country":"India"}},{"type":"Feature","geometry":{"type":"Point","coordinates":[80.2306391,15.9354766]},"properties":{"secretariatName":"NUTHALAPADU2","villageName":"NUTHALAPADU2","sdtname":"PARCHUR","dtname":"BAPATLA","stname":"ANDHRA PRADESH","country":"India"}},{"type":"Feature","geometry":{"type":"Point","coordinates":[80.279184,16.01248]},"properties":{"secretariatName":"DEVARAPALLI","villageName":"DEVARAPALLI","sdtname":"PARCHUR","dtname":"BAPATLA","stname":"ANDHRA PRADESH","country":"India"}},{"type":"Feature","geometry":{"type":"Point","coordinates":[80.377348,15.979871]},"properties":{"secretariatName":"CHERUKURU2","villageName":"CHERUKURU2","sdtname":"PARCHUR","dtname":"BAPATLA","stname":"ANDHRA PRADESH","country":"India"}},{"type":"Feature","geometry":{"type":"Point","coordinates":[80.320465,15.958217]},"properties":{"secretariatName":"VEERANNAPALEM","villageName":"VEERANNAPALEM","sdtname":"PARCHUR","dtname":"BAPATLA","stname":"ANDHRA PRADESH","country":"India"}},{"type":"Feature","geometry":{"type":"Point","coordinates":[80.2907584,16.0394953]},"properties":{"secretariatName":"INAGALLU","villageName":"INAGALLU","sdtname":"PARCHUR","dtname":"BAPATLA","stname":"ANDHRA PRADESH","country":"India"}},{"type":"Feature","geometry":{"type":"Point","coordinates":[80.274843,15.955205]},"properties":{"secretariatName":"NAGULAPALEM","villageName":"NAGULAPALEM","sdtname":"PARCHUR","dtname":"BAPATLA","stname":"ANDHRA PRADESH","country":"India"}},{"type":"Feature","geometry":{"type":"Point","coordinates":[80.249898,15.999275]},"properties":{"secretariatName":"THIMMARAJUPALEM","villageName":"THIMMARAJUPALEM","sdtname":"PARCHUR","dtname":"BAPATLA","stname":"ANDHRA PRADESH","country":"India"}},{"type":"Feature","geometry":{"type":"Point","coordinates":[80.253068,16.043353]},"properties":{"secretariatName":"EDUBADU","villageName":"EDUBADU","sdtname":"PARCHUR","dtname":"BAPATLA","stname":"ANDHRA PRADESH","country":"India"}},{"type":"Feature","geometry":{"type":"Point","coordinates":[80.313934,16.021421]},"properties":{"secretariatName":"ADUSUMALLI","villageName":"ADUSUMALLI","sdtname":"PARCHUR","dtname":"BAPATLA","stname":"ANDHRA PRADESH","country":"India"}},{"type":"Feature","geometry":{"type":"Point","coordinates":[80.2870141,15.9531182]},"properties":{"secretariatName":"UPPUTUR","villageName":"UPPUTUR","sdtname":"PARCHUR","dtname":"BAPATLA","stname":"ANDHRA PRADESH","country":"India"}},{"type":"Feature","geometry":{"type":"Point","coordinates":[80.2306827,15.9354785]},"properties":{"secretariatName":"NUTHALAPADU1","villageName":"NUTHALAPADU1","sdtname":"PARCHUR","dtname":"BAPATLA","stname":"ANDHRA PRADESH","country":"India"}},{"type":"Feature","geometry":{"type":"Point","coordinates":[80.627321,15.93604]},"properties":{"secretariatName":"ALLURU","villageName":"ALLURU","sdtname":"PITTALAVANIPALEM","dtname":"BAPATLA","stname":"ANDHRA PRADESH","country":"India"}},{"type":"Feature","geometry":{"type":"Point","coordinates":[80.604432,15.966581]},"properties":{"secretariatName":"KHAJIPALEM","villageName":"KHAJIPALEM","sdtname":"PITTALAVANIPALEM","dtname":"BAPATLA","stname":"ANDHRA PRADESH","country":"India"}},{"type":"Feature","geometry":{"type":"Point","coordinates":[80.6122332,16.0085747]},"properties":{"secretariatName":"CHANDOLU-1","villageName":"CHANDOLU-1","sdtname":"PITTALAVANIPALEM","dtname":"BAPATLA","stname":"ANDHRA PRADESH","country":"India"}},{"type":"Feature","geometry":{"type":"Point","coordinates":[80.6513499,15.9862152]},"properties":{"secretariatName":"MANTHENAVARIPALEM","villageName":"MANTHENAVARIPALEM","sdtname":"PITTALAVANIPALEM","dtname":"BAPATLA","stname":"ANDHRA PRADESH","country":"India"}},{"type":"Feature","geometry":{"type":"Point","coordinates":[80.60363,15.976976]},"properties":{"secretariatName":"PITTUVARIPALEM","villageName":"PITTUVARIPALEM","sdtname":"PITTALAVANIPALEM","dtname":"BAPATLA","stname":"ANDHRA PRADESH","country":"India"}},{"type":"Feature","geometry":{"type":"Point","coordinates":[80.5961077,16.0300288]},"properties":{"secretariatName":"SANGUPALEM","villageName":"SANGUPALEM","sdtname":"PITTALAVANIPALEM","dtname":"BAPATLA","stname":"ANDHRA PRADESH","country":"India"}},{"type":"Feature","geometry":{"type":"Point","coordinates":[80.619336,15.972159]},"properties":{"secretariatName":"G.N.PALEM","villageName":"G.N.PALEM","sdtname":"PITTALAVANIPALEM","dtname":"BAPATLA","stname":"ANDHRA PRADESH","country":"India"}},{"type":"Feature","geometry":{"type":"Point","coordinates":[80.638381,15.98553]},"properties":{"secretariatName":"PITTALAVANIPALEM","villageName":"PITTALAVANIPALEM","sdtname":"PITTALAVANIPALEM","dtname":"BAPATLA","stname":"ANDHRA PRADESH","country":"India"}},{"type":"Feature","geometry":{"type":"Point","coordinates":[80.590241,15.998627]},"properties":{"secretariatName":"BHAVANAMVRIP[ALEM","villageName":"BHAVANAMVRIP[ALEM","sdtname":"PITTALAVANIPALEM","dtname":"BAPATLA","stname":"ANDHRA PRADESH","country":"India"}},{"type":"Feature","geometry":{"type":"Point","coordinates":[80.573426,16.0163336]},"properties":{"secretariatName":"KOMALI","villageName":"KOMALI","sdtname":"PITTALAVANIPALEM","dtname":"BAPATLA","stname":"ANDHRA PRADESH","country":"India"}},{"type":"Feature","geometry":{"type":"Point","coordinates":[80.6110162,16.005991]},"properties":{"secretariatName":"CHANDOLU-2","villageName":"CHANDOLU-2","sdtname":"PITTALAVANIPALEM","dtname":"BAPATLA","stname":"ANDHRA PRADESH","country":"India"}},{"type":"Feature","geometry":{"type":"Point","coordinates":[80.584199,15.959208]},"properties":{"secretariatName":"POTHANAKATTAVARIPALEM","villageName":"POTHANAKATTAVARIPALEM","sdtname":"PITTALAVANIPALEM","dtname":"BAPATLA","stname":"ANDHRA PRADESH","country":"India"}},{"type":"Feature","geometry":{"type":"Point","coordinates":[80.860619,15.935976]},"properties":{"secretariatName":"KAITHEPALLI","villageName":"KAITHEPALLI","sdtname":"REPALLE","dtname":"BAPATLA","stname":"ANDHRA PRADESH","country":"India"}},{"type":"Feature","geometry":{"type":"Point","coordinates":[80.870898,15.926391]},"properties":{"secretariatName":"VADDIVARIPALEM","villageName":"VADDIVARIPALEM","sdtname":"REPALLE","dtname":"BAPATLA","stname":"ANDHRA PRADESH","country":"India"}},{"type":"Feature","geometry":{"type":"Point","coordinates":[80.886975,15.916718]},"properties":{"secretariatName":"PIRATLANKA","villageName":"PIRATLANKA","sdtname":"REPALLE","dtname":"BAPATLA","stname":"ANDHRA PRADESH","country":"India"}},{"type":"Feature","geometry":{"type":"Point","coordinates":[80.85476,16.008983]},"properties":{"secretariatName":"ARAVAPALLI","villageName":"ARAVAPALLI","sdtname":"REPALLE","dtname":"BAPATLA","stname":"ANDHRA PRADESH","country":"India"}},{"type":"Feature","geometry":{"type":"Point","coordinates":[80.880512,16.00262]},"properties":{"secretariatName":"CHATRAGADDA","villageName":"CHATRAGADDA","sdtname":"REPALLE","dtname":"BAPATLA","stname":"ANDHRA PRADESH","country":"India"}},{"type":"Feature","geometry":{"type":"Point","coordinates":[80.813475,15.994147]},"properties":{"secretariatName":"GUDDIKAYALANKA","villageName":"GUDDIKAYALANKA","sdtname":"REPALLE","dtname":"BAPATLA","stname":"ANDHRA PRADESH","country":"India"}},{"type":"Feature","geometry":{"type":"Point","coordinates":[80.869803,16.031609]},"properties":{"secretariatName":"PENUMUDI","villageName":"PENUMUDI","sdtname":"REPALLE","dtname":"BAPATLA","stname":"ANDHRA PRADESH","country":"India"}},{"type":"Feature","geometry":{"type":"Point","coordinates":[80.8715546,16.0055886]},"properties":{"secretariatName":"NALLURUNORTH","villageName":"NALLURUNORTH","sdtname":"REPALLE","dtname":"BAPATLA","stname":"ANDHRA PRADESH","country":"India"}},{"type":"Feature","geometry":{"type":"Point","coordinates":[80.836925,15.88817]},"properties":{"secretariatName":"MOLLAGUNTA","villageName":"MOLLAGUNTA","sdtname":"REPALLE","dtname":"BAPATLA","stname":"ANDHRA PRADESH","country":"India"}},{"type":"Feature","geometry":{"type":"Point","coordinates":[80.836055,16.03874]},"properties":{"secretariatName":"PETERU-2","villageName":"PETERU-2","sdtname":"REPALLE","dtname":"BAPATLA","stname":"ANDHRA PRADESH","country":"India"}},{"type":"Feature","geometry":{"type":"Point","coordinates":[80.840089,16.037823]},"properties":{"secretariatName":"PETERU-1","villageName":"PETERU-1","sdtname":"REPALLE","dtname":"BAPATLA","stname":"ANDHRA PRADESH","country":"India"}},{"type":"Feature","geometry":{"type":"Point","coordinates":[80.8706089,15.9570056]},"properties":{"secretariatName":"SINGUPALEM","villageName":"SINGUPALEM","sdtname":"REPALLE","dtname":"BAPATLA","stname":"ANDHRA PRADESH","country":"India"}},{"type":"Feature","geometry":{"type":"Point","coordinates":[80.8849604,15.9413433]},"properties":{"secretariatName":"TSODAYAPALEM","villageName":"TSODAYAPALEM","sdtname":"REPALLE","dtname":"BAPATLA","stname":"ANDHRA PRADESH","country":"India"}},{"type":"Feature","geometry":{"type":"Point","coordinates":[80.8087806,16.0229193]},"properties":{"secretariatName":"BETHAPUDI-1","villageName":"BETHAPUDI-1","sdtname":"REPALLE","dtname":"BAPATLA","stname":"ANDHRA PRADESH","country":"India"}},{"type":"Feature","geometry":{"type":"Point","coordinates":[80.8105774,16.0241287]},"properties":{"secretariatName":"BETHAPUDI-2","villageName":"BETHAPUDI-2","sdtname":"REPALLE","dtname":"BAPATLA","stname":"ANDHRA PRADESH","country":"India"}},{"type":"Feature","geometry":{"type":"Point","coordinates":[80.8148266,16.0598474]},"properties":{"secretariatName":"KARUMURU","villageName":"KARUMURU","sdtname":"REPALLE","dtname":"BAPATLA","stname":"ANDHRA PRADESH","country":"India"}},{"type":"Feature","geometry":{"type":"Point","coordinates":[80.886573,15.884032]},"properties":{"secretariatName":"GANGADIPALEM","villageName":"GANGADIPALEM","sdtname":"REPALLE","dtname":"BAPATLA","stname":"ANDHRA PRADESH","country":"India"}},{"type":"Feature","geometry":{"type":"Point","coordinates":[80.841197,15.908144]},"properties":{"secretariatName":"THUMMALA","villageName":"THUMMALA","sdtname":"REPALLE","dtname":"BAPATLA","stname":"ANDHRA PRADESH","country":"India"}},{"type":"Feature","geometry":{"type":"Point","coordinates":[80.831558,16.004253]},"properties":{"secretariatName":"UPPUDI","villageName":"UPPUDI","sdtname":"REPALLE","dtname":"BAPATLA","stname":"ANDHRA PRADESH","country":"India"}},{"type":"Feature","geometry":{"type":"Point","coordinates":[80.881703,15.99142]},"properties":{"secretariatName":"KAMARAJUGADDANORTH","villageName":"KAMARAJUGADDANORTH","sdtname":"REPALLE","dtname":"BAPATLA","stname":"ANDHRA PRADESH","country":"India"}},{"type":"Feature","geometry":{"type":"Point","coordinates":[80.871519,15.853055]},"properties":{"secretariatName":"RAJUKALVA","villageName":"RAJUKALVA","sdtname":"REPALLE","dtname":"BAPATLA","stname":"ANDHRA PRADESH","country":"India"}},{"type":"Feature","geometry":{"type":"Point","coordinates":[80.825049,16.031678]},"properties":{"secretariatName":"MORLAVARIPALEM","villageName":"MORLAVARIPALEM","sdtname":"REPALLE","dtname":"BAPATLA","stname":"ANDHRA PRADESH","country":"India"}},{"type":"Feature","geometry":{"type":"Point","coordinates":[80.841567,15.932872]},"properties":{"secretariatName":"POTUMERAKA","villageName":"POTUMERAKA","sdtname":"REPALLE","dtname":"BAPATLA","stname":"ANDHRA PRADESH","country":"India"}},{"type":"Feature","geometry":{"type":"Point","coordinates":[79.9299386,16.08175]},"properties":{"secretariatName":"ELCHURU2","villageName":"ELCHURU2","sdtname":"SANTHAMAGULUR","dtname":"BAPATLA","stname":"ANDHRA PRADESH","country":"India"}},{"type":"Feature","geometry":{"type":"Point","coordinates":[79.95750285,16.02094943]},"properties":{"secretariatName":"MAKKENAVARIPALEM2","villageName":"MAKKENAVARIPALEM2","sdtname":"SANTHAMAGULUR","dtname":"BAPATLA","stname":"ANDHRA PRADESH","country":"India"}},{"type":"Feature","geometry":{"type":"Point","coordinates":[79.92784,16.0805616]},"properties":{"secretariatName":"ELCHURU1","villageName":"ELCHURU1","sdtname":"SANTHAMAGULUR","dtname":"BAPATLA","stname":"ANDHRA PRADESH","country":"India"}},{"type":"Feature","geometry":{"type":"Point","coordinates":[79.9172628,16.0183348]},"properties":{"secretariatName":"MAMILLAPALLI","villageName":"MAMILLAPALLI","sdtname":"SANTHAMAGULUR","dtname":"BAPATLA","stname":"ANDHRA PRADESH","country":"India"}},{"type":"Feature","geometry":{"type":"Point","coordinates":[79.955145,16.022354]},"properties":{"secretariatName":"MAKKENAVARIPALEM","villageName":"MAKKENAVARIPALEM","sdtname":"SANTHAMAGULUR","dtname":"BAPATLA","stname":"ANDHRA PRADESH","country":"India"}},{"type":"Feature","geometry":{"type":"Point","coordinates":[79.957562,16.118561]},"properties":{"secretariatName":"SANTHAMAGULUR2","villageName":"SANTHAMAGULUR2","sdtname":"SANTHAMAGULUR","dtname":"BAPATLA","stname":"ANDHRA PRADESH","country":"India"}},{"type":"Feature","geometry":{"type":"Point","coordinates":[79.8910657,16.0941919]},"properties":{"secretariatName":"ADAVIPALEM","villageName":"ADAVIPALEM","sdtname":"SANTHAMAGULUR","dtname":"BAPATLA","stname":"ANDHRA PRADESH","country":"India"}},{"type":"Feature","geometry":{"type":"Point","coordinates":[79.9553747,16.1192022]},"properties":{"secretariatName":"SANTHAMAGULUR1","villageName":"SANTHAMAGULUR1","sdtname":"SANTHAMAGULUR","dtname":"BAPATLA","stname":"ANDHRA PRADESH","country":"India"}},{"type":"Feature","geometry":{"type":"Point","coordinates":[79.962315,16.131044]},"properties":{"secretariatName":"PATHAMAGULUR","villageName":"PATHAMAGULUR","sdtname":"SANTHAMAGULUR","dtname":"BAPATLA","stname":"ANDHRA PRADESH","country":"India"}},{"type":"Feature","geometry":{"type":"Point","coordinates":[79.978995,16.064889]},"properties":{"secretariatName":"SAJJAPURAM","villageName":"SAJJAPURAM","sdtname":"SANTHAMAGULUR","dtname":"BAPATLA","stname":"ANDHRA PRADESH","country":"India"}},{"type":"Feature","geometry":{"type":"Point","coordinates":[79.885333,16.131898]},"properties":{"secretariatName":"VELLALACHERUVU","villageName":"VELLALACHERUVU","sdtname":"SANTHAMAGULUR","dtname":"BAPATLA","stname":"ANDHRA PRADESH","country":"India"}},{"type":"Feature","geometry":{"type":"Point","coordinates":[80.0389965,16.1075797]},"properties":{"secretariatName":"GURIJEPALLI","villageName":"GURIJEPALLI","sdtname":"SANTHAMAGULUR","dtname":"BAPATLA","stname":"ANDHRA PRADESH","country":"India"}},{"type":"Feature","geometry":{"type":"Point","coordinates":[79.9879909,16.0842252]},"properties":{"secretariatName":"KOPPARAM","villageName":"KOPPARAM","sdtname":"SANTHAMAGULUR","dtname":"BAPATLA","stname":"ANDHRA PRADESH","country":"India"}},{"type":"Feature","geometry":{"type":"Point","coordinates":[79.920222,16.081017]},"properties":{"secretariatName":"ELCHURU3","villageName":"ELCHURU3","sdtname":"SANTHAMAGULUR","dtname":"BAPATLA","stname":"ANDHRA PRADESH","country":"India"}},{"type":"Feature","geometry":{"type":"Point","coordinates":[79.908765,16.010702]},"properties":{"secretariatName":"KUNDURRU","villageName":"KUNDURRU","sdtname":"SANTHAMAGULUR","dtname":"BAPATLA","stname":"ANDHRA PRADESH","country":"India"}},{"type":"Feature","geometry":{"type":"Point","coordinates":[79.909067,16.126224]},"properties":{"secretariatName":"KAMEPALLI","villageName":"KAMEPALLI","sdtname":"SANTHAMAGULUR","dtname":"BAPATLA","stname":"ANDHRA PRADESH","country":"India"}},{"type":"Feature","geometry":{"type":"Point","coordinates":[80.023666,16.10543]},"properties":{"secretariatName":"TANGEDUMALLI","villageName":"TANGEDUMALLI","sdtname":"SANTHAMAGULUR","dtname":"BAPATLA","stname":"ANDHRA PRADESH","country":"India"}},{"type":"Feature","geometry":{"type":"Point","coordinates":[79.994629,16.119961]},"properties":{"secretariatName":"MINNEKALLU","villageName":"MINNEKALLU","sdtname":"SANTHAMAGULUR","dtname":"BAPATLA","stname":"ANDHRA PRADESH","country":"India"}},{"type":"Feature","geometry":{"type":"Point","coordinates":[79.9819835,16.0996375]},"properties":{"secretariatName":"PATTEPURAM","villageName":"PATTEPURAM","sdtname":"SANTHAMAGULUR","dtname":"BAPATLA","stname":"ANDHRA PRADESH","country":"India"}},{"type":"Feature","geometry":{"type":"Point","coordinates":[79.9445728,16.0297209]},"properties":{"secretariatName":"KOMMALAPADU","villageName":"KOMMALAPADU","sdtname":"SANTHAMAGULUR","dtname":"BAPATLA","stname":"ANDHRA PRADESH","country":"India"}},{"type":"Feature","geometry":{"type":"Point","coordinates":[80.597711,16.211979]},"properties":{"secretariatName":"EDALAPALLI","villageName":"EDALAPALLI","sdtname":"TSUNDURU","dtname":"BAPATLA","stname":"ANDHRA PRADESH","country":"India"}},{"type":"Feature","geometry":{"type":"Point","coordinates":[80.6379974,16.1643574]},"properties":{"secretariatName":"MANDURU","villageName":"MANDURU","sdtname":"TSUNDURU","dtname":"BAPATLA","stname":"ANDHRA PRADESH","country":"India"}},{"type":"Feature","geometry":{"type":"Point","coordinates":[80.5829604,16.1318013]},"properties":{"secretariatName":"MODUKURU-1","villageName":"MODUKURU-1","sdtname":"TSUNDURU","dtname":"BAPATLA","stname":"ANDHRA PRADESH","country":"India"}},{"type":"Feature","geometry":{"type":"Point","coordinates":[80.60791,16.220302]},"properties":{"secretariatName":"DUNDIPALEM","villageName":"DUNDIPALEM","sdtname":"TSUNDURU","dtname":"BAPATLA","stname":"ANDHRA PRADESH","country":"India"}},{"type":"Feature","geometry":{"type":"Point","coordinates":[80.633972,16.144487]},"properties":{"secretariatName":"ALAPADU","villageName":"ALAPADU","sdtname":"TSUNDURU","dtname":"BAPATLA","stname":"ANDHRA PRADESH","country":"India"}},{"type":"Feature","geometry":{"type":"Point","coordinates":[80.592271,16.203341]},"properties":{"secretariatName":"VALIVERU","villageName":"VALIVERU","sdtname":"TSUNDURU","dtname":"BAPATLA","stname":"ANDHRA PRADESH","country":"India"}},{"type":"Feature","geometry":{"type":"Point","coordinates":[80.583535,16.153767]},"properties":{"secretariatName":"AMBDEKARNAGAR","villageName":"AMBDEKARNAGAR","sdtname":"TSUNDURU","dtname":"BAPATLA","stname":"ANDHRA PRADESH","country":"India"}},{"type":"Feature","geometry":{"type":"Point","coordinates":[80.580153,16.15927]},"properties":{"secretariatName":"MUNNANGIVARIPALEM","villageName":"MUNNANGIVARIPALEM","sdtname":"TSUNDURU","dtname":"BAPATLA","stname":"ANDHRA PRADESH","country":"India"}},{"type":"Feature","geometry":{"type":"Point","coordinates":[80.5623717,16.1840532]},"properties":{"secretariatName":"VETAPALEM","villageName":"VETAPALEM","sdtname":"TSUNDURU","dtname":"BAPATLA","stname":"ANDHRA PRADESH","country":"India"}},{"type":"Feature","geometry":{"type":"Point","coordinates":[80.552475,16.139566]},"properties":{"secretariatName":"THOTTEMPUDI","villageName":"THOTTEMPUDI","sdtname":"TSUNDURU","dtname":"BAPATLA","stname":"ANDHRA PRADESH","country":"India"}},{"type":"Feature","geometry":{"type":"Point","coordinates":[80.641533,16.196344]},"properties":{"secretariatName":"CHINAPARIMI","villageName":"CHINAPARIMI","sdtname":"TSUNDURU","dtname":"BAPATLA","stname":"ANDHRA PRADESH","country":"India"}},{"type":"Feature","geometry":{"type":"Point","coordinates":[80.5829604,16.1318013]},"properties":{"secretariatName":"MODUKURU-2","villageName":"MODUKURU-2","sdtname":"TSUNDURU","dtname":"BAPATLA","stname":"ANDHRA PRADESH","country":"India"}},{"type":"Feature","geometry":{"type":"Point","coordinates":[80.573569,16.206193]},"properties":{"secretariatName":"PENUGUDURUPADU","villageName":"PENUGUDURUPADU","sdtname":"TSUNDURU","dtname":"BAPATLA","stname":"ANDHRA PRADESH","country":"India"}},{"type":"Feature","geometry":{"type":"Point","coordinates":[80.5814528,16.1588788]},"properties":{"secretariatName":"TSUNDURU","villageName":"TSUNDURU","sdtname":"TSUNDURU","dtname":"BAPATLA","stname":"ANDHRA PRADESH","country":"India"}},{"type":"Feature","geometry":{"type":"Point","coordinates":[80.607594,16.169487]},"properties":{"secretariatName":"PEDAGADELAVARRU","villageName":"PEDAGADELAVARRU","sdtname":"TSUNDURU","dtname":"BAPATLA","stname":"ANDHRA PRADESH","country":"India"}},{"type":"Feature","geometry":{"type":"Point","coordinates":[80.740744,16.195418]},"properties":{"secretariatName":"VARAHAPURAM","villageName":"VARAHAPURAM","sdtname":"VEMURU","dtname":"BAPATLA","stname":"ANDHRA PRADESH","country":"India"}},{"type":"Feature","geometry":{"type":"Point","coordinates":[80.729639,16.235873]},"properties":{"secretariatName":"CHADALAWADA","villageName":"CHADALAWADA","sdtname":"VEMURU","dtname":"BAPATLA","stname":"ANDHRA PRADESH","country":"India"}},{"type":"Feature","geometry":{"type":"Point","coordinates":[80.7508827,16.218417]},"properties":{"secretariatName":"KUCHELLAPADU","villageName":"KUCHELLAPADU","sdtname":"VEMURU","dtname":"BAPATLA","stname":"ANDHRA PRADESH","country":"India"}},{"type":"Feature","geometry":{"type":"Point","coordinates":[80.701601,16.138486]},"properties":{"secretariatName":"PERAVALIPALEM","villageName":"PERAVALIPALEM","sdtname":"VEMURU","dtname":"BAPATLA","stname":"ANDHRA PRADESH","country":"India"}},{"type":"Feature","geometry":{"type":"Point","coordinates":[80.739827,16.176333]},"properties":{"secretariatName":"VEMURU-2","villageName":"VEMURU-2","sdtname":"VEMURU","dtname":"BAPATLA","stname":"ANDHRA PRADESH","country":"India"}},{"type":"Feature","geometry":{"type":"Point","coordinates":[80.703065,16.194676]},"properties":{"secretariatName":"ZAMPANI-1","villageName":"ZAMPANI-1","sdtname":"VEMURU","dtname":"BAPATLA","stname":"ANDHRA PRADESH","country":"India"}},{"type":"Feature","geometry":{"type":"Point","coordinates":[80.7164892,16.1392553]},"properties":{"secretariatName":"PERAVALI","villageName":"PERAVALI","sdtname":"VEMURU","dtname":"BAPATLA","stname":"ANDHRA PRADESH","country":"India"}},{"type":"Feature","geometry":{"type":"Point","coordinates":[80.735455,16.139061]},"properties":{"secretariatName":"CHAVALI-2","villageName":"CHAVALI-2","sdtname":"VEMURU","dtname":"BAPATLA","stname":"ANDHRA PRADESH","country":"India"}},{"type":"Feature","geometry":{"type":"Point","coordinates":[80.7398848,16.1779454]},"properties":{"secretariatName":"VEMURU-1","villageName":"VEMURU-1","sdtname":"VEMURU","dtname":"BAPATLA","stname":"ANDHRA PRADESH","country":"India"}},{"type":"Feature","geometry":{"type":"Point","coordinates":[80.747047,16.161115]},"properties":{"secretariatName":"BALIJEPALLI","villageName":"BALIJEPALLI","sdtname":"VEMURU","dtname":"BAPATLA","stname":"ANDHRA PRADESH","country":"India"}},{"type":"Feature","geometry":{"type":"Point","coordinates":[80.7365837,16.1395224]},"properties":{"secretariatName":"CHAVALI-1","villageName":"CHAVALI-1","sdtname":"VEMURU","dtname":"BAPATLA","stname":"ANDHRA PRADESH","country":"India"}},{"type":"Feature","geometry":{"type":"Point","coordinates":[80.772894,16.133692]},"properties":{"secretariatName":"PENUMARRU","villageName":"PENUMARRU","sdtname":"VEMURU","dtname":"BAPATLA","stname":"ANDHRA PRADESH","country":"India"}},{"type":"Feature","geometry":{"type":"Point","coordinates":[80.716251,16.180244]},"properties":{"secretariatName":"CHAMPADU","villageName":"CHAMPADU","sdtname":"VEMURU","dtname":"BAPATLA","stname":"ANDHRA PRADESH","country":"India"}},{"type":"Feature","geometry":{"type":"Point","coordinates":[80.703178,16.194707]},"properties":{"secretariatName":"ZAMPANI-2","villageName":"ZAMPANI-2","sdtname":"VEMURU","dtname":"BAPATLA","stname":"ANDHRA PRADESH","country":"India"}},{"type":"Feature","geometry":{"type":"Point","coordinates":[80.3033778,15.782073]},"properties":{"secretariatName":"VETAPALEM2","villageName":"VETAPALEM2","sdtname":"VETAPALEM","dtname":"BAPATLA","stname":"ANDHRA PRADESH","country":"India"}},{"type":"Feature","geometry":{"type":"Point","coordinates":[80.31613,15.786899]},"properties":{"secretariatName":"DESAIPETA4","villageName":"DESAIPETA4","sdtname":"VETAPALEM","dtname":"BAPATLA","stname":"ANDHRA PRADESH","country":"India"}},{"type":"Feature","geometry":{"type":"Point","coordinates":[80.2892536,15.7624775]},"properties":{"secretariatName":"PANDILLAPALLI2","villageName":"PANDILLAPALLI2","sdtname":"VETAPALEM","dtname":"BAPATLA","stname":"ANDHRA PRADESH","country":"India"}},{"type":"Feature","geometry":{"type":"Point","coordinates":[80.372995,15.827518]},"properties":{"secretariatName":"KOTHAPETA2","villageName":"KOTHAPETA2","sdtname":"VETAPALEM","dtname":"BAPATLA","stname":"ANDHRA PRADESH","country":"India"}},{"type":"Feature","geometry":{"type":"Point","coordinates":[80.36180327,15.81290466]},"properties":{"secretariatName":"KOTHAPETA3","villageName":"KOTHAPETA3","sdtname":"VETAPALEM","dtname":"BAPATLA","stname":"ANDHRA PRADESH","country":"India"}},{"type":"Feature","geometry":{"type":"Point","coordinates":[80.3146475,15.7909571]},"properties":{"secretariatName":"DESAIPETA2","villageName":"DESAIPETA2","sdtname":"VETAPALEM","dtname":"BAPATLA","stname":"ANDHRA PRADESH","country":"India"}},{"type":"Feature","geometry":{"type":"Point","coordinates":[80.3212386,15.7946816]},"properties":{"secretariatName":"DESAIPETA3","villageName":"DESAIPETA3","sdtname":"VETAPALEM","dtname":"BAPATLA","stname":"ANDHRA PRADESH","country":"India"}},{"type":"Feature","geometry":{"type":"Point","coordinates":[80.2948,15.7397]},"properties":{"secretariatName":"PULLARIPALEM","villageName":"PULLARIPALEM","sdtname":"VETAPALEM","dtname":"BAPATLA","stname":"ANDHRA PRADESH","country":"India"}},{"type":"Feature","geometry":{"type":"Point","coordinates":[80.3344572,15.7802959]},"properties":{"secretariatName":"CHALLAREDDYPALEM1","villageName":"CHALLAREDDYPALEM1","sdtname":"VETAPALEM","dtname":"BAPATLA","stname":"ANDHRA PRADESH","country":"India"}},{"type":"Feature","geometry":{"type":"Point","coordinates":[80.3838986,15.7999425]},"properties":{"secretariatName":"PAPAYAPALEM","villageName":"PAPAYAPALEM","sdtname":"VETAPALEM","dtname":"BAPATLA","stname":"ANDHRA PRADESH","country":"India"}},{"type":"Feature","geometry":{"type":"Point","coordinates":[80.3199359,15.7932669]},"properties":{"secretariatName":"DESAIPETA1","villageName":"DESAIPETA1","sdtname":"VETAPALEM","dtname":"BAPATLA","stname":"ANDHRA PRADESH","country":"India"}},{"type":"Feature","geometry":{"type":"Point","coordinates":[80.364888,15.82002]},"properties":{"secretariatName":"KOTHAPETA1","villageName":"KOTHAPETA1","sdtname":"VETAPALEM","dtname":"BAPATLA","stname":"ANDHRA PRADESH","country":"India"}},{"type":"Feature","geometry":{"type":"Point","coordinates":[80.287217,15.758391]},"properties":{"secretariatName":"PANDILLAPALLI1","villageName":"PANDILLAPALLI1","sdtname":"VETAPALEM","dtname":"BAPATLA","stname":"ANDHRA PRADESH","country":"India"}},{"type":"Feature","geometry":{"type":"Point","coordinates":[80.31890334,15.76408951]},"properties":{"secretariatName":"CHALLAREDDYPALEM2","villageName":"CHALLAREDDYPALEM2","sdtname":"VETAPALEM","dtname":"BAPATLA","stname":"ANDHRA PRADESH","country":"India"}},{"type":"Feature","geometry":{"type":"Point","coordinates":[80.308017,15.777247]},"properties":{"secretariatName":"VETAPALEM3","villageName":"VETAPALEM3","sdtname":"VETAPALEM","dtname":"BAPATLA","stname":"ANDHRA PRADESH","country":"India"}},{"type":"Feature","geometry":{"type":"Point","coordinates":[80.2996552,15.7716326]},"properties":{"secretariatName":"RAMANNAPETA1","villageName":"RAMANNAPETA1","sdtname":"VETAPALEM","dtname":"BAPATLA","stname":"ANDHRA PRADESH","country":"India"}},{"type":"Feature","geometry":{"type":"Point","coordinates":[80.362775,15.80744]},"properties":{"secretariatName":"AKKAYAPALEM","villageName":"AKKAYAPALEM","sdtname":"VETAPALEM","dtname":"BAPATLA","stname":"ANDHRA PRADESH","country":"India"}},{"type":"Feature","geometry":{"type":"Point","coordinates":[80.3038934,15.783372]},"properties":{"secretariatName":"VETAPALEM1","villageName":"VETAPALEM1","sdtname":"VETAPALEM","dtname":"BAPATLA","stname":"ANDHRA PRADESH","country":"India"}},{"type":"Feature","geometry":{"type":"Point","coordinates":[80.3056822,15.7755578]},"properties":{"secretariatName":"RAMANNAPETA2","villageName":"RAMANNAPETA2","sdtname":"VETAPALEM","dtname":"BAPATLA","stname":"ANDHRA PRADESH","country":"India"}},{"type":"Feature","geometry":{"type":"Point","coordinates":[80.1631088,16.0287321]},"properties":{"secretariatName":"ANANTHAVARAM","villageName":"ANANTHAVARAM","sdtname":"YEDDANAPUDI","dtname":"BAPATLA","stname":"ANDHRA PRADESH","country":"India"}},{"type":"Feature","geometry":{"type":"Point","coordinates":[80.1699215,15.938499]},"properties":{"secretariatName":"PUNURU1","villageName":"PUNURU1","sdtname":"YEDDANAPUDI","dtname":"BAPATLA","stname":"ANDHRA PRADESH","country":"India"}},{"type":"Feature","geometry":{"type":"Point","coordinates":[80.2201876,15.9754677]},"properties":{"secretariatName":"JAGARLAMUDI","villageName":"JAGARLAMUDI","sdtname":"YEDDANAPUDI","dtname":"BAPATLA","stname":"ANDHRA PRADESH","country":"India"}},{"type":"Feature","geometry":{"type":"Point","coordinates":[80.2111891,15.9935994]},"properties":{"secretariatName":"POLURU","villageName":"POLURU","sdtname":"YEDDANAPUDI","dtname":"BAPATLA","stname":"ANDHRA PRADESH","country":"India"}},{"type":"Feature","geometry":{"type":"Point","coordinates":[80.1714493,15.9972918]},"properties":{"secretariatName":"YEDDANAPUDI","villageName":"YEDDANAPUDI","sdtname":"YEDDANAPUDI","dtname":"BAPATLA","stname":"ANDHRA PRADESH","country":"India"}},{"type":"Feature","geometry":{"type":"Point","coordinates":[80.1732894,15.9686264]},"properties":{"secretariatName":"GANNAVARAM","villageName":"GANNAVARAM","sdtname":"YEDDANAPUDI","dtname":"BAPATLA","stname":"ANDHRA PRADESH","country":"India"}},{"type":"Feature","geometry":{"type":"Point","coordinates":[80.201401,15.964028]},"properties":{"secretariatName":"TANUBODDIVARIPALEM","villageName":"TANUBODDIVARIPALEM","sdtname":"YEDDANAPUDI","dtname":"BAPATLA","stname":"ANDHRA PRADESH","country":"India"}},{"type":"Feature","geometry":{"type":"Point","coordinates":[80.1539299,16.0043648]},"properties":{"secretariatName":"YENAMADALA","villageName":"YENAMADALA","sdtname":"YEDDANAPUDI","dtname":"BAPATLA","stname":"ANDHRA PRADESH","country":"India"}},{"type":"Feature","geometry":{"type":"Point","coordinates":[80.1676979,15.9371154]},"properties":{"secretariatName":"PUNURU2","villageName":"PUNURU2","sdtname":"YEDDANAPUDI","dtname":"BAPATLA","stname":"ANDHRA PRADESH","country":"India"}}]}