{"type":"FeatureCollection","features":[{"type":"Feature","geometry":{"type":"Point","coordinates":[80.662609,17.046938]},"properties":{"secretariatName":"VALLAMPATLA","villageName":"VALLAMPATLA","sdtname":"A.KONDURU","dtname":"NTR","stname":"ANDHRA PRADESH","country":"India"}},{"type":"Feature","geometry":{"type":"Point","coordinates":[80.698647,16.957305]},"properties":{"secretariatName":"REPUDI","villageName":"REPUDI","sdtname":"A.KONDURU","dtname":"NTR","stname":"ANDHRA PRADESH","country":"India"}},{"type":"Feature","geometry":{"type":"Point","coordinates":[80.637315,16.869094]},"properties":{"secretariatName":"RAMCHANDRAPURAM","villageName":"RAMCHANDRAPURAM","sdtname":"A.KONDURU","dtname":"NTR","stname":"ANDHRA PRADESH","country":"India"}},{"type":"Feature","geometry":{"type":"Point","coordinates":[80.631069,17.031706]},"properties":{"secretariatName":"POLLOSETTIPADI","villageName":"POLLOSETTIPADI","sdtname":"A.KONDURU","dtname":"NTR","stname":"ANDHRA PRADESH","country":"India"}},{"type":"Feature","geometry":{"type":"Point","coordinates":[80.707295,16.911956]},"properties":{"secretariatName":"MADHAVARAM","villageName":"MADHAVARAM","sdtname":"A.KONDURU","dtname":"NTR","stname":"ANDHRA PRADESH","country":"India"}},{"type":"Feature","geometry":{"type":"Point","coordinates":[80.6627676,16.9297385]},"properties":{"secretariatName":"KUMMARIKUNTLA","villageName":"KUMMARIKUNTLA","sdtname":"A.KONDURU","dtname":"NTR","stname":"ANDHRA PRADESH","country":"India"}},{"type":"Feature","geometry":{"type":"Point","coordinates":[80.642957,16.910699]},"properties":{"secretariatName":"KRISHNARAOPALEM","villageName":"KRISHNARAOPALEM","sdtname":"A.KONDURU","dtname":"NTR","stname":"ANDHRA PRADESH","country":"India"}},{"type":"Feature","geometry":{"type":"Point","coordinates":[80.629623,16.999456]},"properties":{"secretariatName":"KODURU","villageName":"KODURU","sdtname":"A.KONDURU","dtname":"NTR","stname":"ANDHRA PRADESH","country":"India"}},{"type":"Feature","geometry":{"type":"Point","coordinates":[80.6581824,16.9934659]},"properties":{"secretariatName":"KHAMBHAMPADU2","villageName":"KHAMBHAMPADU2","sdtname":"A.KONDURU","dtname":"NTR","stname":"ANDHRA PRADESH","country":"India"}},{"type":"Feature","geometry":{"type":"Point","coordinates":[80.654302,16.98502]},"properties":{"secretariatName":"KHAMBHAMPADU1","villageName":"KHAMBHAMPADU1","sdtname":"A.KONDURU","dtname":"NTR","stname":"ANDHRA PRADESH","country":"India"}},{"type":"Feature","geometry":{"type":"Point","coordinates":[80.6717903,16.9815312]},"properties":{"secretariatName":"GOLLAMANDLA","villageName":"GOLLAMANDLA","sdtname":"A.KONDURU","dtname":"NTR","stname":"ANDHRA PRADESH","country":"India"}},{"type":"Feature","geometry":{"type":"Point","coordinates":[80.6530297,16.8886639]},"properties":{"secretariatName":"CHEEMALAPADU","villageName":"CHEEMALAPADU","sdtname":"A.KONDURU","dtname":"NTR","stname":"ANDHRA PRADESH","country":"India"}},{"type":"Feature","geometry":{"type":"Point","coordinates":[80.660263,16.9416972]},"properties":{"secretariatName":"A.KONDURUTHANDA","villageName":"A.KONDURUTHANDA","sdtname":"A.KONDURU","dtname":"NTR","stname":"ANDHRA PRADESH","country":"India"}},{"type":"Feature","geometry":{"type":"Point","coordinates":[80.652803,16.965353]},"properties":{"secretariatName":"A.KONDURU","villageName":"A.KONDURU","sdtname":"A.KONDURU","dtname":"NTR","stname":"ANDHRA PRADESH","country":"India"}},{"type":"Feature","geometry":{"type":"Point","coordinates":[80.2992668,16.6291465]},"properties":{"secretariatName":"VIBHARINTHALAPADU","villageName":"VIBHARINTHALAPADU","sdtname":"CHANDARLAPADU","dtname":"NTR","stname":"ANDHRA PRADESH","country":"India"}},{"type":"Feature","geometry":{"type":"Point","coordinates":[80.2301471,16.6413026]},"properties":{"secretariatName":"VELADIKOTHAPALEM","villageName":"VELADIKOTHAPALEM","sdtname":"CHANDARLAPADU","dtname":"NTR","stname":"ANDHRA PRADESH","country":"India"}},{"type":"Feature","geometry":{"type":"Point","coordinates":[80.2588618,16.6967043]},"properties":{"secretariatName":"THURLAPADU","villageName":"THURLAPADU","sdtname":"CHANDARLAPADU","dtname":"NTR","stname":"ANDHRA PRADESH","country":"India"}},{"type":"Feature","geometry":{"type":"Point","coordinates":[80.280361,16.677957]},"properties":{"secretariatName":"THOTARAVULAPADU","villageName":"THOTARAVULAPADU","sdtname":"CHANDARLAPADU","dtname":"NTR","stname":"ANDHRA PRADESH","country":"India"}},{"type":"Feature","geometry":{"type":"Point","coordinates":[80.15885,16.655391]},"properties":{"secretariatName":"POKKUNURU","villageName":"POKKUNURU","sdtname":"CHANDARLAPADU","dtname":"NTR","stname":"ANDHRA PRADESH","country":"India"}},{"type":"Feature","geometry":{"type":"Point","coordinates":[80.258825,16.734985]},"properties":{"secretariatName":"MUPPALLA2","villageName":"MUPPALLA2","sdtname":"CHANDARLAPADU","dtname":"NTR","stname":"ANDHRA PRADESH","country":"India"}},{"type":"Feature","geometry":{"type":"Point","coordinates":[80.2549604,16.732831]},"properties":{"secretariatName":"MUPPALLA1","villageName":"MUPPALLA1","sdtname":"CHANDARLAPADU","dtname":"NTR","stname":"ANDHRA PRADESH","country":"India"}},{"type":"Feature","geometry":{"type":"Point","coordinates":[80.203674,16.741591]},"properties":{"secretariatName":"KONAYAPALEM","villageName":"KONAYAPALEM","sdtname":"CHANDARLAPADU","dtname":"NTR","stname":"ANDHRA PRADESH","country":"India"}},{"type":"Feature","geometry":{"type":"Point","coordinates":[80.1963603,16.6495289]},"properties":{"secretariatName":"KODAVATIKALLU","villageName":"KODAVATIKALLU","sdtname":"CHANDARLAPADU","dtname":"NTR","stname":"ANDHRA PRADESH","country":"India"}},{"type":"Feature","geometry":{"type":"Point","coordinates":[80.145268,16.66647]},"properties":{"secretariatName":"KASARABADA","villageName":"KASARABADA","sdtname":"CHANDARLAPADU","dtname":"NTR","stname":"ANDHRA PRADESH","country":"India"}},{"type":"Feature","geometry":{"type":"Point","coordinates":[80.192678,16.753776]},"properties":{"secretariatName":"KANDRAPADU","villageName":"KANDRAPADU","sdtname":"CHANDARLAPADU","dtname":"NTR","stname":"ANDHRA PRADESH","country":"India"}},{"type":"Feature","geometry":{"type":"Point","coordinates":[80.159465,16.734805]},"properties":{"secretariatName":"GUDIMETLA","villageName":"GUDIMETLA","sdtname":"CHANDARLAPADU","dtname":"NTR","stname":"ANDHRA PRADESH","country":"India"}},{"type":"Feature","geometry":{"type":"Point","coordinates":[80.2783003,16.6572769]},"properties":{"secretariatName":"CHINTHALAPADU","villageName":"CHINTHALAPADU","sdtname":"CHANDARLAPADU","dtname":"NTR","stname":"ANDHRA PRADESH","country":"India"}},{"type":"Feature","geometry":{"type":"Point","coordinates":[80.205353,16.6931899]},"properties":{"secretariatName":"CHANDARLAPADU3","villageName":"CHANDARLAPADU3","sdtname":"CHANDARLAPADU","dtname":"NTR","stname":"ANDHRA PRADESH","country":"India"}},{"type":"Feature","geometry":{"type":"Point","coordinates":[80.2005826,16.6944165]},"properties":{"secretariatName":"CHANDARLAPADU2","villageName":"CHANDARLAPADU2","sdtname":"CHANDARLAPADU","dtname":"NTR","stname":"ANDHRA PRADESH","country":"India"}},{"type":"Feature","geometry":{"type":"Point","coordinates":[80.195273,16.694077]},"properties":{"secretariatName":"CHANDARLAPADU1","villageName":"CHANDARLAPADU1","sdtname":"CHANDARLAPADU","dtname":"NTR","stname":"ANDHRA PRADESH","country":"India"}},{"type":"Feature","geometry":{"type":"Point","coordinates":[80.6190162,16.7198594]},"properties":{"secretariatName":"VENKATAPURAM","villageName":"VENKATAPURAM","sdtname":"G KONDURU","dtname":"NTR","stname":"ANDHRA PRADESH","country":"India"}},{"type":"Feature","geometry":{"type":"Point","coordinates":[80.649155,16.694039]},"properties":{"secretariatName":"VELLATURU2","villageName":"VELLATURU2","sdtname":"G KONDURU","dtname":"NTR","stname":"ANDHRA PRADESH","country":"India"}},{"type":"Feature","geometry":{"type":"Point","coordinates":[80.6382467,16.6848023]},"properties":{"secretariatName":"VELLATURU1","villageName":"VELLATURU1","sdtname":"G KONDURU","dtname":"NTR","stname":"ANDHRA PRADESH","country":"India"}},{"type":"Feature","geometry":{"type":"Point","coordinates":[80.6133538,16.6488544]},"properties":{"secretariatName":"VELAGALERU","villageName":"VELAGALERU","sdtname":"G KONDURU","dtname":"NTR","stname":"ANDHRA PRADESH","country":"India"}},{"type":"Feature","geometry":{"type":"Point","coordinates":[80.63608,16.711712]},"properties":{"secretariatName":"KUNTAMUKKALA","villageName":"KUNTAMUKKALA","sdtname":"G KONDURU","dtname":"NTR","stname":"ANDHRA PRADESH","country":"India"}},{"type":"Feature","geometry":{"type":"Point","coordinates":[80.68301,16.7257042]},"properties":{"secretariatName":"KODURU","villageName":"KODURU","sdtname":"G KONDURU","dtname":"NTR","stname":"ANDHRA PRADESH","country":"India"}},{"type":"Feature","geometry":{"type":"Point","coordinates":[80.583242,16.626347]},"properties":{"secretariatName":"KAVULURU2","villageName":"KAVULURU2","sdtname":"G KONDURU","dtname":"NTR","stname":"ANDHRA PRADESH","country":"India"}},{"type":"Feature","geometry":{"type":"Point","coordinates":[80.5834349,16.6295505]},"properties":{"secretariatName":"KAVULURU1","villageName":"KAVULURU1","sdtname":"G KONDURU","dtname":"NTR","stname":"ANDHRA PRADESH","country":"India"}},{"type":"Feature","geometry":{"type":"Point","coordinates":[80.568876,16.654226]},"properties":{"secretariatName":"KATTUBADIPALEM","villageName":"KATTUBADIPALEM","sdtname":"G KONDURU","dtname":"NTR","stname":"ANDHRA PRADESH","country":"India"}},{"type":"Feature","geometry":{"type":"Point","coordinates":[80.6126305,16.6666259]},"properties":{"secretariatName":"H.MUTYALAMPADU","villageName":"H.MUTYALAMPADU","sdtname":"G KONDURU","dtname":"NTR","stname":"ANDHRA PRADESH","country":"India"}},{"type":"Feature","geometry":{"type":"Point","coordinates":[80.5221719,16.754371]},"properties":{"secretariatName":"GANGINENIPALEM","villageName":"GANGINENIPALEM","sdtname":"G KONDURU","dtname":"NTR","stname":"ANDHRA PRADESH","country":"India"}},{"type":"Feature","geometry":{"type":"Point","coordinates":[80.563066,16.681581]},"properties":{"secretariatName":"GADDAMANUGU","villageName":"GADDAMANUGU","sdtname":"G KONDURU","dtname":"NTR","stname":"ANDHRA PRADESH","country":"India"}},{"type":"Feature","geometry":{"type":"Point","coordinates":[80.5732889,16.6808146]},"properties":{"secretariatName":"G.KONDURU2","villageName":"G.KONDURU2","sdtname":"G KONDURU","dtname":"NTR","stname":"ANDHRA PRADESH","country":"India"}},{"type":"Feature","geometry":{"type":"Point","coordinates":[80.574367,16.6789231]},"properties":{"secretariatName":"G.KONDURU1","villageName":"G.KONDURU1","sdtname":"G KONDURU","dtname":"NTR","stname":"ANDHRA PRADESH","country":"India"}},{"type":"Feature","geometry":{"type":"Point","coordinates":[80.5994896,16.695844]},"properties":{"secretariatName":"CHEVUTURU","villageName":"CHEVUTURU","sdtname":"G KONDURU","dtname":"NTR","stname":"ANDHRA PRADESH","country":"India"}},{"type":"Feature","geometry":{"type":"Point","coordinates":[80.549016,16.701067]},"properties":{"secretariatName":"CHERUVUMADHAVARAM","villageName":"CHERUVUMADHAVARAM","sdtname":"G KONDURU","dtname":"NTR","stname":"ANDHRA PRADESH","country":"India"}},{"type":"Feature","geometry":{"type":"Point","coordinates":[80.4335213,17.0173329]},"properties":{"secretariatName":"VUTUKURU2","villageName":"VUTUKURU2","sdtname":"GAMPALAGUDEM","dtname":"NTR","stname":"ANDHRA PRADESH","country":"India"}},{"type":"Feature","geometry":{"type":"Point","coordinates":[80.4338918,17.0151239]},"properties":{"secretariatName":"VUTUKURU1","villageName":"VUTUKURU1","sdtname":"GAMPALAGUDEM","dtname":"NTR","stname":"ANDHRA PRADESH","country":"India"}},{"type":"Feature","geometry":{"type":"Point","coordinates":[80.5311371,16.9718946]},"properties":{"secretariatName":"VINAGADAPA","villageName":"VINAGADAPA","sdtname":"GAMPALAGUDEM","dtname":"NTR","stname":"ANDHRA PRADESH","country":"India"}},{"type":"Feature","geometry":{"type":"Point","coordinates":[80.384202,16.977919]},"properties":{"secretariatName":"TUNIKANAPADU","villageName":"TUNIKANAPADU","sdtname":"GAMPALAGUDEM","dtname":"NTR","stname":"ANDHRA PRADESH","country":"India"}},{"type":"Feature","geometry":{"type":"Point","coordinates":[80.4390844,16.9785282]},"properties":{"secretariatName":"PENUGOLLANU2","villageName":"PENUGOLLANU2","sdtname":"GAMPALAGUDEM","dtname":"NTR","stname":"ANDHRA PRADESH","country":"India"}},{"type":"Feature","geometry":{"type":"Point","coordinates":[80.43588,16.977077]},"properties":{"secretariatName":"PENUGOLLANU1","villageName":"PENUGOLLANU1","sdtname":"GAMPALAGUDEM","dtname":"NTR","stname":"ANDHRA PRADESH","country":"India"}},{"type":"Feature","geometry":{"type":"Point","coordinates":[80.502503,16.975892]},"properties":{"secretariatName":"Pedakomira","villageName":"Pedakomira","sdtname":"GAMPALAGUDEM","dtname":"NTR","stname":"ANDHRA PRADESH","country":"India"}},{"type":"Feature","geometry":{"type":"Point","coordinates":[80.3945691,17.0662471]},"properties":{"secretariatName":"NEMALLI","villageName":"NEMALLI","sdtname":"GAMPALAGUDEM","dtname":"NTR","stname":"ANDHRA PRADESH","country":"India"}},{"type":"Feature","geometry":{"type":"Point","coordinates":[80.497252,16.994295]},"properties":{"secretariatName":"MEDURU","villageName":"MEDURU","sdtname":"GAMPALAGUDEM","dtname":"NTR","stname":"ANDHRA PRADESH","country":"India"}},{"type":"Feature","geometry":{"type":"Point","coordinates":[80.518264,16.957889]},"properties":{"secretariatName":"KOTAPALLI","villageName":"KOTAPALLI","sdtname":"GAMPALAGUDEM","dtname":"NTR","stname":"ANDHRA PRADESH","country":"India"}},{"type":"Feature","geometry":{"type":"Point","coordinates":[80.40422,17.046489]},"properties":{"secretariatName":"KONJERLA","villageName":"KONJERLA","sdtname":"GAMPALAGUDEM","dtname":"NTR","stname":"ANDHRA PRADESH","country":"India"}},{"type":"Feature","geometry":{"type":"Point","coordinates":[80.567612,16.998982]},"properties":{"secretariatName":"KANUMURU","villageName":"KANUMURU","sdtname":"GAMPALAGUDEM","dtname":"NTR","stname":"ANDHRA PRADESH","country":"India"}},{"type":"Feature","geometry":{"type":"Point","coordinates":[80.5029,17.0516]},"properties":{"secretariatName":"GULLAPUDI","villageName":"GULLAPUDI","sdtname":"GAMPALAGUDEM","dtname":"NTR","stname":"ANDHRA PRADESH","country":"India"}},{"type":"Feature","geometry":{"type":"Point","coordinates":[80.48654,16.936066]},"properties":{"secretariatName":"GOSAVEEDU","villageName":"GOSAVEEDU","sdtname":"GAMPALAGUDEM","dtname":"NTR","stname":"ANDHRA PRADESH","country":"India"}},{"type":"Feature","geometry":{"type":"Point","coordinates":[80.5182942,17.0002377]},"properties":{"secretariatName":"GAMPALAGUDEM2","villageName":"GAMPALAGUDEM2","sdtname":"GAMPALAGUDEM","dtname":"NTR","stname":"ANDHRA PRADESH","country":"India"}},{"type":"Feature","geometry":{"type":"Point","coordinates":[80.518376,17.000384]},"properties":{"secretariatName":"GAMPALAGUDEM1","villageName":"GAMPALAGUDEM1","sdtname":"GAMPALAGUDEM","dtname":"NTR","stname":"ANDHRA PRADESH","country":"India"}},{"type":"Feature","geometry":{"type":"Point","coordinates":[80.408693,17.002345]},"properties":{"secretariatName":"DUNDARLAPADU","villageName":"DUNDARLAPADU","sdtname":"GAMPALAGUDEM","dtname":"NTR","stname":"ANDHRA PRADESH","country":"India"}},{"type":"Feature","geometry":{"type":"Point","coordinates":[80.4718064,17.0023309]},"properties":{"secretariatName":"CHINTALANARVA","villageName":"CHINTALANARVA","sdtname":"GAMPALAGUDEM","dtname":"NTR","stname":"ANDHRA PRADESH","country":"India"}},{"type":"Feature","geometry":{"type":"Point","coordinates":[80.48502,17.037083]},"properties":{"secretariatName":"ARLAPADU","villageName":"ARLAPADU","sdtname":"GAMPALAGUDEM","dtname":"NTR","stname":"ANDHRA PRADESH","country":"India"}},{"type":"Feature","geometry":{"type":"Point","coordinates":[80.5461,16.9765]},"properties":{"secretariatName":"ANUMULLANKA","villageName":"ANUMULLANKA","sdtname":"GAMPALAGUDEM","dtname":"NTR","stname":"ANDHRA PRADESH","country":"India"}},{"type":"Feature","geometry":{"type":"Point","coordinates":[80.500739,16.968078]},"properties":{"secretariatName":"AMMIREDDIGUDEM","villageName":"AMMIREDDIGUDEM","sdtname":"GAMPALAGUDEM","dtname":"NTR","stname":"ANDHRA PRADESH","country":"India"}},{"type":"Feature","geometry":{"type":"Point","coordinates":[80.5316947,16.5707182]},"properties":{"secretariatName":"TUMMALAPALEM","villageName":"TUMMALAPALEM","sdtname":"IBRAHIMPATNAM","dtname":"NTR","stname":"ANDHRA PRADESH","country":"India"}},{"type":"Feature","geometry":{"type":"Point","coordinates":[80.468384,16.613706]},"properties":{"secretariatName":"MULAPADU2","villageName":"MULAPADU2","sdtname":"IBRAHIMPATNAM","dtname":"NTR","stname":"ANDHRA PRADESH","country":"India"}},{"type":"Feature","geometry":{"type":"Point","coordinates":[80.4684324,16.6136287]},"properties":{"secretariatName":"MULAPADU1","villageName":"MULAPADU1","sdtname":"IBRAHIMPATNAM","dtname":"NTR","stname":"ANDHRA PRADESH","country":"India"}},{"type":"Feature","geometry":{"type":"Point","coordinates":[80.53818,16.612892]},"properties":{"secretariatName":"KONDAPALLI5","villageName":"KONDAPALLI5","sdtname":"IBRAHIMPATNAM","dtname":"NTR","stname":"ANDHRA PRADESH","country":"India"}},{"type":"Feature","geometry":{"type":"Point","coordinates":[80.5445137,16.6151037]},"properties":{"secretariatName":"KONDAPALLI4","villageName":"KONDAPALLI4","sdtname":"IBRAHIMPATNAM","dtname":"NTR","stname":"ANDHRA PRADESH","country":"India"}},{"type":"Feature","geometry":{"type":"Point","coordinates":[80.5512263,16.6288238]},"properties":{"secretariatName":"KONDAPALLI3","villageName":"KONDAPALLI3","sdtname":"IBRAHIMPATNAM","dtname":"NTR","stname":"ANDHRA PRADESH","country":"India"}},{"type":"Feature","geometry":{"type":"Point","coordinates":[80.538094,16.612976]},"properties":{"secretariatName":"KONDAPALLI2","villageName":"KONDAPALLI2","sdtname":"IBRAHIMPATNAM","dtname":"NTR","stname":"ANDHRA PRADESH","country":"India"}},{"type":"Feature","geometry":{"type":"Point","coordinates":[80.5431105,16.6240435]},"properties":{"secretariatName":"KONDAPALLI1","villageName":"KONDAPALLI1","sdtname":"IBRAHIMPATNAM","dtname":"NTR","stname":"ANDHRA PRADESH","country":"India"}},{"type":"Feature","geometry":{"type":"Point","coordinates":[80.450029,16.608248]},"properties":{"secretariatName":"KETANAKONDA2","villageName":"KETANAKONDA2","sdtname":"IBRAHIMPATNAM","dtname":"NTR","stname":"ANDHRA PRADESH","country":"India"}},{"type":"Feature","geometry":{"type":"Point","coordinates":[80.4524633,16.6230577]},"properties":{"secretariatName":"KETANAKONDA1","villageName":"KETANAKONDA1","sdtname":"IBRAHIMPATNAM","dtname":"NTR","stname":"ANDHRA PRADESH","country":"India"}},{"type":"Feature","geometry":{"type":"Point","coordinates":[80.4371355,16.6339387]},"properties":{"secretariatName":"KACHAVARAM","villageName":"KACHAVARAM","sdtname":"IBRAHIMPATNAM","dtname":"NTR","stname":"ANDHRA PRADESH","country":"India"}},{"type":"Feature","geometry":{"type":"Point","coordinates":[80.4890409,16.60582]},"properties":{"secretariatName":"JUPUDI","villageName":"JUPUDI","sdtname":"IBRAHIMPATNAM","dtname":"NTR","stname":"ANDHRA PRADESH","country":"India"}},{"type":"Feature","geometry":{"type":"Point","coordinates":[80.5184,16.593747]},"properties":{"secretariatName":"IBRAHIMPATNAM5","villageName":"IBRAHIMPATNAM5","sdtname":"IBRAHIMPATNAM","dtname":"NTR","stname":"ANDHRA PRADESH","country":"India"}},{"type":"Feature","geometry":{"type":"Point","coordinates":[80.5130637,16.5987236]},"properties":{"secretariatName":"IBRAHIMPATNAM4","villageName":"IBRAHIMPATNAM4","sdtname":"IBRAHIMPATNAM","dtname":"NTR","stname":"ANDHRA PRADESH","country":"India"}},{"type":"Feature","geometry":{"type":"Point","coordinates":[80.5170157,16.5855527]},"properties":{"secretariatName":"IBRAHIMPATNAM3","villageName":"IBRAHIMPATNAM3","sdtname":"IBRAHIMPATNAM","dtname":"NTR","stname":"ANDHRA PRADESH","country":"India"}},{"type":"Feature","geometry":{"type":"Point","coordinates":[80.517232,16.587327]},"properties":{"secretariatName":"IBRAHIMPATNAM2","villageName":"IBRAHIMPATNAM2","sdtname":"IBRAHIMPATNAM","dtname":"NTR","stname":"ANDHRA PRADESH","country":"India"}},{"type":"Feature","geometry":{"type":"Point","coordinates":[80.5250123,16.5957912]},"properties":{"secretariatName":"IBRAHIMPATNAM1","villageName":"IBRAHIMPATNAM1","sdtname":"IBRAHIMPATNAM","dtname":"NTR","stname":"ANDHRA PRADESH","country":"India"}},{"type":"Feature","geometry":{"type":"Point","coordinates":[80.555838,16.577246]},"properties":{"secretariatName":"GUNTUPALLI3","villageName":"GUNTUPALLI3","sdtname":"IBRAHIMPATNAM","dtname":"NTR","stname":"ANDHRA PRADESH","country":"India"}},{"type":"Feature","geometry":{"type":"Point","coordinates":[80.5453,16.5643]},"properties":{"secretariatName":"GUNTUPALLI2","villageName":"GUNTUPALLI2","sdtname":"IBRAHIMPATNAM","dtname":"NTR","stname":"ANDHRA PRADESH","country":"India"}},{"type":"Feature","geometry":{"type":"Point","coordinates":[80.5451678,16.5640291]},"properties":{"secretariatName":"GUNTUPALLI1","villageName":"GUNTUPALLI1","sdtname":"IBRAHIMPATNAM","dtname":"NTR","stname":"ANDHRA PRADESH","country":"India"}},{"type":"Feature","geometry":{"type":"Point","coordinates":[80.4131155,16.6045547]},"properties":{"secretariatName":"DAMULURU","villageName":"DAMULURU","sdtname":"IBRAHIMPATNAM","dtname":"NTR","stname":"ANDHRA PRADESH","country":"India"}},{"type":"Feature","geometry":{"type":"Point","coordinates":[80.130951,16.810501]},"properties":{"secretariatName":"VEDADRI","villageName":"VEDADRI","sdtname":"JAGGAYYAPETA","dtname":"NTR","stname":"ANDHRA PRADESH","country":"India"}},{"type":"Feature","geometry":{"type":"Point","coordinates":[80.059042,16.960283]},"properties":{"secretariatName":"TAKKELLAPADU","villageName":"TAKKELLAPADU","sdtname":"JAGGAYYAPETA","dtname":"NTR","stname":"ANDHRA PRADESH","country":"India"}},{"type":"Feature","geometry":{"type":"Point","coordinates":[80.094743,16.920446]},"properties":{"secretariatName":"SHERMOHAMMADPETA2","villageName":"SHERMOHAMMADPETA2","sdtname":"JAGGAYYAPETA","dtname":"NTR","stname":"ANDHRA PRADESH","country":"India"}},{"type":"Feature","geometry":{"type":"Point","coordinates":[80.0947083,16.9204925]},"properties":{"secretariatName":"SHERMOHAMMADPETA1","villageName":"SHERMOHAMMADPETA1","sdtname":"JAGGAYYAPETA","dtname":"NTR","stname":"ANDHRA PRADESH","country":"India"}},{"type":"Feature","geometry":{"type":"Point","coordinates":[80.1871561,16.8346784]},"properties":{"secretariatName":"POCHAMPALLI","villageName":"POCHAMPALLI","sdtname":"JAGGAYYAPETA","dtname":"NTR","stname":"ANDHRA PRADESH","country":"India"}},{"type":"Feature","geometry":{"type":"Point","coordinates":[80.0739711,16.8215015]},"properties":{"secretariatName":"MUKTHESWARAPURAM","villageName":"MUKTHESWARAPURAM","sdtname":"JAGGAYYAPETA","dtname":"NTR","stname":"ANDHRA PRADESH","country":"India"}},{"type":"Feature","geometry":{"type":"Point","coordinates":[80.152159,16.994873]},"properties":{"secretariatName":"MALKAPURAM","villageName":"MALKAPURAM","sdtname":"JAGGAYYAPETA","dtname":"NTR","stname":"ANDHRA PRADESH","country":"India"}},{"type":"Feature","geometry":{"type":"Point","coordinates":[80.1017623,16.8652495]},"properties":{"secretariatName":"K.AGRAHARAM","villageName":"K.AGRAHARAM","sdtname":"JAGGAYYAPETA","dtname":"NTR","stname":"ANDHRA PRADESH","country":"India"}},{"type":"Feature","geometry":{"type":"Point","coordinates":[80.115008,16.860937]},"properties":{"secretariatName":"JAYANTHIPURAM","villageName":"JAYANTHIPURAM","sdtname":"JAGGAYYAPETA","dtname":"NTR","stname":"ANDHRA PRADESH","country":"India"}},{"type":"Feature","geometry":{"type":"Point","coordinates":[80.1964802,16.8581149]},"properties":{"secretariatName":"GOURAVARAM","villageName":"GOURAVARAM","sdtname":"JAGGAYYAPETA","dtname":"NTR","stname":"ANDHRA PRADESH","country":"India"}},{"type":"Feature","geometry":{"type":"Point","coordinates":[80.1207,16.9702338]},"properties":{"secretariatName":"GANDRAI2","villageName":"GANDRAI2","sdtname":"JAGGAYYAPETA","dtname":"NTR","stname":"ANDHRA PRADESH","country":"India"}},{"type":"Feature","geometry":{"type":"Point","coordinates":[80.1194312,16.9715398]},"properties":{"secretariatName":"GANDRAI1","villageName":"GANDRAI1","sdtname":"JAGGAYYAPETA","dtname":"NTR","stname":"ANDHRA PRADESH","country":"India"}},{"type":"Feature","geometry":{"type":"Point","coordinates":[80.1335655,16.8776135]},"properties":{"secretariatName":"DHARMAVARAPPADUTHANDA","villageName":"DHARMAVARAPPADUTHANDA","sdtname":"JAGGAYYAPETA","dtname":"NTR","stname":"ANDHRA PRADESH","country":"India"}},{"type":"Feature","geometry":{"type":"Point","coordinates":[80.1112344,16.8969586]},"properties":{"secretariatName":"CHILAKALLU3","villageName":"CHILAKALLU3","sdtname":"JAGGAYYAPETA","dtname":"NTR","stname":"ANDHRA PRADESH","country":"India"}},{"type":"Feature","geometry":{"type":"Point","coordinates":[80.136747,16.909703]},"properties":{"secretariatName":"CHILAKALLU2","villageName":"CHILAKALLU2","sdtname":"JAGGAYYAPETA","dtname":"NTR","stname":"ANDHRA PRADESH","country":"India"}},{"type":"Feature","geometry":{"type":"Point","coordinates":[80.1398027,16.8947758]},"properties":{"secretariatName":"CHILAKALLU1","villageName":"CHILAKALLU1","sdtname":"JAGGAYYAPETA","dtname":"NTR","stname":"ANDHRA PRADESH","country":"India"}},{"type":"Feature","geometry":{"type":"Point","coordinates":[80.0298099,16.8768262]},"properties":{"secretariatName":"BUDAVADA","villageName":"BUDAVADA","sdtname":"JAGGAYYAPETA","dtname":"NTR","stname":"ANDHRA PRADESH","country":"India"}},{"type":"Feature","geometry":{"type":"Point","coordinates":[80.1867709,16.8210249]},"properties":{"secretariatName":"BANDIPALEM","villageName":"BANDIPALEM","sdtname":"JAGGAYYAPETA","dtname":"NTR","stname":"ANDHRA PRADESH","country":"India"}},{"type":"Feature","geometry":{"type":"Point","coordinates":[80.044608,16.923629]},"properties":{"secretariatName":"BALUSUPADU","villageName":"BALUSUPADU","sdtname":"JAGGAYYAPETA","dtname":"NTR","stname":"ANDHRA PRADESH","country":"India"}},{"type":"Feature","geometry":{"type":"Point","coordinates":[80.071738,16.93069]},"properties":{"secretariatName":"ANUMANCHIPALLI","villageName":"ANUMANCHIPALLI","sdtname":"JAGGAYYAPETA","dtname":"NTR","stname":"ANDHRA PRADESH","country":"India"}},{"type":"Feature","geometry":{"type":"Point","coordinates":[80.0286,16.9072]},"properties":{"secretariatName":"ANNAVARAM","villageName":"ANNAVARAM","sdtname":"JAGGAYYAPETA","dtname":"NTR","stname":"ANDHRA PRADESH","country":"India"}},{"type":"Feature","geometry":{"type":"Point","coordinates":[80.304167,16.671444]},"properties":{"secretariatName":"VEMULAPALLI","villageName":"VEMULAPALLI","sdtname":"KANCHIKACHERLA","dtname":"NTR","stname":"ANDHRA PRADESH","country":"India"}},{"type":"Feature","geometry":{"type":"Point","coordinates":[80.372647,16.704549]},"properties":{"secretariatName":"PERAKALAPADU","villageName":"PERAKALAPADU","sdtname":"KANCHIKACHERLA","dtname":"NTR","stname":"ANDHRA PRADESH","country":"India"}},{"type":"Feature","geometry":{"type":"Point","coordinates":[80.3188131,16.7057961]},"properties":{"secretariatName":"PENDYALA2","villageName":"PENDYALA2","sdtname":"KANCHIKACHERLA","dtname":"NTR","stname":"ANDHRA PRADESH","country":"India"}},{"type":"Feature","geometry":{"type":"Point","coordinates":[80.3147889,16.6952008]},"properties":{"secretariatName":"PENDYALA1","villageName":"PENDYALA1","sdtname":"KANCHIKACHERLA","dtname":"NTR","stname":"ANDHRA PRADESH","country":"India"}},{"type":"Feature","geometry":{"type":"Point","coordinates":[80.407043,16.656009]},"properties":{"secretariatName":"PARITALA2","villageName":"PARITALA2","sdtname":"KANCHIKACHERLA","dtname":"NTR","stname":"ANDHRA PRADESH","country":"India"}},{"type":"Feature","geometry":{"type":"Point","coordinates":[80.406978,16.6562634]},"properties":{"secretariatName":"PARITALA1","villageName":"PARITALA1","sdtname":"KANCHIKACHERLA","dtname":"NTR","stname":"ANDHRA PRADESH","country":"India"}},{"type":"Feature","geometry":{"type":"Point","coordinates":[80.3335681,16.6367892]},"properties":{"secretariatName":"MOGULURU","villageName":"MOGULURU","sdtname":"KANCHIKACHERLA","dtname":"NTR","stname":"ANDHRA PRADESH","country":"India"}},{"type":"Feature","geometry":{"type":"Point","coordinates":[80.3517702,16.6173515]},"properties":{"secretariatName":"KUNIKINAPADU","villageName":"KUNIKINAPADU","sdtname":"KANCHIKACHERLA","dtname":"NTR","stname":"ANDHRA PRADESH","country":"India"}},{"type":"Feature","geometry":{"type":"Point","coordinates":[80.40787,16.6129176]},"properties":{"secretariatName":"KOTHAPETA","villageName":"KOTHAPETA","sdtname":"KANCHIKACHERLA","dtname":"NTR","stname":"ANDHRA PRADESH","country":"India"}},{"type":"Feature","geometry":{"type":"Point","coordinates":[80.3264085,16.7186071]},"properties":{"secretariatName":"KEESARA","villageName":"KEESARA","sdtname":"KANCHIKACHERLA","dtname":"NTR","stname":"ANDHRA PRADESH","country":"India"}},{"type":"Feature","geometry":{"type":"Point","coordinates":[80.3875707,16.6782377]},"properties":{"secretariatName":"KANCHIKACHERLA3","villageName":"KANCHIKACHERLA3","sdtname":"KANCHIKACHERLA","dtname":"NTR","stname":"ANDHRA PRADESH","country":"India"}},{"type":"Feature","geometry":{"type":"Point","coordinates":[80.3904269,16.685738]},"properties":{"secretariatName":"KANCHIKACHERLA2","villageName":"KANCHIKACHERLA2","sdtname":"KANCHIKACHERLA","dtname":"NTR","stname":"ANDHRA PRADESH","country":"India"}},{"type":"Feature","geometry":{"type":"Point","coordinates":[80.3902903,16.6842964]},"properties":{"secretariatName":"KANCHIKACHERLA1","villageName":"KANCHIKACHERLA1","sdtname":"KANCHIKACHERLA","dtname":"NTR","stname":"ANDHRA PRADESH","country":"India"}},{"type":"Feature","geometry":{"type":"Point","coordinates":[80.4129697,16.6953322]},"properties":{"secretariatName":"GOTTMUKKALA","villageName":"GOTTMUKKALA","sdtname":"KANCHIKACHERLA","dtname":"NTR","stname":"ANDHRA PRADESH","country":"India"}},{"type":"Feature","geometry":{"type":"Point","coordinates":[80.3940643,16.6140795]},"properties":{"secretariatName":"GANIATKURU","villageName":"GANIATKURU","sdtname":"KANCHIKACHERLA","dtname":"NTR","stname":"ANDHRA PRADESH","country":"India"}},{"type":"Feature","geometry":{"type":"Point","coordinates":[80.3336317,16.7285683]},"properties":{"secretariatName":"GANDEPALLI","villageName":"GANDEPALLI","sdtname":"KANCHIKACHERLA","dtname":"NTR","stname":"ANDHRA PRADESH","country":"India"}},{"type":"Feature","geometry":{"type":"Point","coordinates":[80.363598,16.623716]},"properties":{"secretariatName":"CHEVITIKALLU","villageName":"CHEVITIKALLU","sdtname":"KANCHIKACHERLA","dtname":"NTR","stname":"ANDHRA PRADESH","country":"India"}},{"type":"Feature","geometry":{"type":"Point","coordinates":[80.664,16.759]},"properties":{"secretariatName":"VELVADAM2","villageName":"VELVADAM2","sdtname":"MYLAVARAM","dtname":"NTR","stname":"ANDHRA PRADESH","country":"India"}},{"type":"Feature","geometry":{"type":"Point","coordinates":[80.6640158,16.7613003]},"properties":{"secretariatName":"VELVADAM1","villageName":"VELVADAM1","sdtname":"MYLAVARAM","dtname":"NTR","stname":"ANDHRA PRADESH","country":"India"}},{"type":"Feature","geometry":{"type":"Point","coordinates":[80.6774579,16.8068827]},"properties":{"secretariatName":"THOLUKODU","villageName":"THOLUKODU","sdtname":"MYLAVARAM","dtname":"NTR","stname":"ANDHRA PRADESH","country":"India"}},{"type":"Feature","geometry":{"type":"Point","coordinates":[80.6254615,16.8368817]},"properties":{"secretariatName":"PULLURU2","villageName":"PULLURU2","sdtname":"MYLAVARAM","dtname":"NTR","stname":"ANDHRA PRADESH","country":"India"}},{"type":"Feature","geometry":{"type":"Point","coordinates":[80.623357,16.832668]},"properties":{"secretariatName":"PULLURU1","villageName":"PULLURU1","sdtname":"MYLAVARAM","dtname":"NTR","stname":"ANDHRA PRADESH","country":"India"}},{"type":"Feature","geometry":{"type":"Point","coordinates":[80.6185826,16.7705301]},"properties":{"secretariatName":"PONDUGALA","villageName":"PONDUGALA","sdtname":"MYLAVARAM","dtname":"NTR","stname":"ANDHRA PRADESH","country":"India"}},{"type":"Feature","geometry":{"type":"Point","coordinates":[80.64158,16.763361]},"properties":{"secretariatName":"MYLAVARAM5","villageName":"MYLAVARAM5","sdtname":"MYLAVARAM","dtname":"NTR","stname":"ANDHRA PRADESH","country":"India"}},{"type":"Feature","geometry":{"type":"Point","coordinates":[80.6360037,16.7533227]},"properties":{"secretariatName":"MYLAVARAM4","villageName":"MYLAVARAM4","sdtname":"MYLAVARAM","dtname":"NTR","stname":"ANDHRA PRADESH","country":"India"}},{"type":"Feature","geometry":{"type":"Point","coordinates":[80.645821,16.760627]},"properties":{"secretariatName":"MYLAVARAM3","villageName":"MYLAVARAM3","sdtname":"MYLAVARAM","dtname":"NTR","stname":"ANDHRA PRADESH","country":"India"}},{"type":"Feature","geometry":{"type":"Point","coordinates":[80.641974,16.75786]},"properties":{"secretariatName":"MYLAVARAM2","villageName":"MYLAVARAM2","sdtname":"MYLAVARAM","dtname":"NTR","stname":"ANDHRA PRADESH","country":"India"}},{"type":"Feature","geometry":{"type":"Point","coordinates":[80.6413383,16.7560231]},"properties":{"secretariatName":"MYLAVARAM1","villageName":"MYLAVARAM1","sdtname":"MYLAVARAM","dtname":"NTR","stname":"ANDHRA PRADESH","country":"India"}},{"type":"Feature","geometry":{"type":"Point","coordinates":[80.57503,16.850462]},"properties":{"secretariatName":"MORSUMILLI","villageName":"MORSUMILLI","sdtname":"MYLAVARAM","dtname":"NTR","stname":"ANDHRA PRADESH","country":"India"}},{"type":"Feature","geometry":{"type":"Point","coordinates":[80.6881013,16.7713649]},"properties":{"secretariatName":"KEERTHIRAYANIGUDEM","villageName":"KEERTHIRAYANIGUDEM","sdtname":"MYLAVARAM","dtname":"NTR","stname":"ANDHRA PRADESH","country":"India"}},{"type":"Feature","geometry":{"type":"Point","coordinates":[80.689607,16.7403353]},"properties":{"secretariatName":"GANAPAVARAM","villageName":"GANAPAVARAM","sdtname":"MYLAVARAM","dtname":"NTR","stname":"ANDHRA PRADESH","country":"India"}},{"type":"Feature","geometry":{"type":"Point","coordinates":[80.7039179,16.7632364]},"properties":{"secretariatName":"CHANDRALA","villageName":"CHANDRALA","sdtname":"MYLAVARAM","dtname":"NTR","stname":"ANDHRA PRADESH","country":"India"}},{"type":"Feature","geometry":{"type":"Point","coordinates":[80.630572,16.804299]},"properties":{"secretariatName":"CHANDRAGUDEM2","villageName":"CHANDRAGUDEM2","sdtname":"MYLAVARAM","dtname":"NTR","stname":"ANDHRA PRADESH","country":"India"}},{"type":"Feature","geometry":{"type":"Point","coordinates":[80.6297323,16.8036593]},"properties":{"secretariatName":"CHANDRAGUDEM1","villageName":"CHANDRAGUDEM1","sdtname":"MYLAVARAM","dtname":"NTR","stname":"ANDHRA PRADESH","country":"India"}},{"type":"Feature","geometry":{"type":"Point","coordinates":[80.351496,16.815434]},"properties":{"secretariatName":"SOMAVARAM","villageName":"SOMAVARAM","sdtname":"NANDIGAMA","dtname":"NTR","stname":"ANDHRA PRADESH","country":"India"}},{"type":"Feature","geometry":{"type":"Point","coordinates":[80.3244822,16.8571799]},"properties":{"secretariatName":"RAMIREDDIPALLI","villageName":"RAMIREDDIPALLI","sdtname":"NANDIGAMA","dtname":"NTR","stname":"ANDHRA PRADESH","country":"India"}},{"type":"Feature","geometry":{"type":"Point","coordinates":[80.3205126,16.7604887]},"properties":{"secretariatName":"RAGHAVAPURAM","villageName":"RAGHAVAPURAM","sdtname":"NANDIGAMA","dtname":"NTR","stname":"ANDHRA PRADESH","country":"India"}},{"type":"Feature","geometry":{"type":"Point","coordinates":[80.168719,16.769709]},"properties":{"secretariatName":"PEDDAVARAM","villageName":"PEDDAVARAM","sdtname":"NANDIGAMA","dtname":"NTR","stname":"ANDHRA PRADESH","country":"India"}},{"type":"Feature","geometry":{"type":"Point","coordinates":[80.3229238,16.7816743]},"properties":{"secretariatName":"PALLAGIRI","villageName":"PALLAGIRI","sdtname":"NANDIGAMA","dtname":"NTR","stname":"ANDHRA PRADESH","country":"India"}},{"type":"Feature","geometry":{"type":"Point","coordinates":[80.3146325,16.8135454]},"properties":{"secretariatName":"MAGALLU","villageName":"MAGALLU","sdtname":"NANDIGAMA","dtname":"NTR","stname":"ANDHRA PRADESH","country":"India"}},{"type":"Feature","geometry":{"type":"Point","coordinates":[80.2282483,16.7736029]},"properties":{"secretariatName":"LINGALAPADU","villageName":"LINGALAPADU","sdtname":"NANDIGAMA","dtname":"NTR","stname":"ANDHRA PRADESH","country":"India"}},{"type":"Feature","geometry":{"type":"Point","coordinates":[80.311403,16.831005]},"properties":{"secretariatName":"KONDURU","villageName":"KONDURU","sdtname":"NANDIGAMA","dtname":"NTR","stname":"ANDHRA PRADESH","country":"India"}},{"type":"Feature","geometry":{"type":"Point","coordinates":[80.2850717,16.7294633]},"properties":{"secretariatName":"KETAVEERNIPADU","villageName":"KETAVEERNIPADU","sdtname":"NANDIGAMA","dtname":"NTR","stname":"ANDHRA PRADESH","country":"India"}},{"type":"Feature","geometry":{"type":"Point","coordinates":[80.2994831,16.7023183]},"properties":{"secretariatName":"KANCHELA","villageName":"KANCHELA","sdtname":"NANDIGAMA","dtname":"NTR","stname":"ANDHRA PRADESH","country":"India"}},{"type":"Feature","geometry":{"type":"Point","coordinates":[80.3313227,16.8740653]},"properties":{"secretariatName":"JONNALAGADDA","villageName":"JONNALAGADDA","sdtname":"NANDIGAMA","dtname":"NTR","stname":"ANDHRA PRADESH","country":"India"}},{"type":"Feature","geometry":{"type":"Point","coordinates":[80.30667,16.733978]},"properties":{"secretariatName":"ITHAVARM","villageName":"ITHAVARM","sdtname":"NANDIGAMA","dtname":"NTR","stname":"ANDHRA PRADESH","country":"India"}},{"type":"Feature","geometry":{"type":"Point","coordinates":[80.3521672,16.7837705]},"properties":{"secretariatName":"GOLLAMUDI","villageName":"GOLLAMUDI","sdtname":"NANDIGAMA","dtname":"NTR","stname":"ANDHRA PRADESH","country":"India"}},{"type":"Feature","geometry":{"type":"Point","coordinates":[80.3654463,16.8307734]},"properties":{"secretariatName":"DAMULURU","villageName":"DAMULURU","sdtname":"NANDIGAMA","dtname":"NTR","stname":"ANDHRA PRADESH","country":"India"}},{"type":"Feature","geometry":{"type":"Point","coordinates":[80.275824,16.756009]},"properties":{"secretariatName":"CHANDAPURAM","villageName":"CHANDAPURAM","sdtname":"NANDIGAMA","dtname":"NTR","stname":"ANDHRA PRADESH","country":"India"}},{"type":"Feature","geometry":{"type":"Point","coordinates":[80.3031449,16.7423621]},"properties":{"secretariatName":"AMBARUPETA","villageName":"AMBARUPETA","sdtname":"NANDIGAMA","dtname":"NTR","stname":"ANDHRA PRADESH","country":"India"}},{"type":"Feature","geometry":{"type":"Point","coordinates":[80.239933,16.7683791]},"properties":{"secretariatName":"ADAVIRAVULAPADU","villageName":"ADAVIRAVULAPADU","sdtname":"NANDIGAMA","dtname":"NTR","stname":"ANDHRA PRADESH","country":"India"}},{"type":"Feature","geometry":{"type":"Point","coordinates":[80.267076,16.841238]},"properties":{"secretariatName":"VENKATAPURAM","villageName":"VENKATAPURAM","sdtname":"PENUGANCHIPROLU","dtname":"NTR","stname":"ANDHRA PRADESH","country":"India"}},{"type":"Feature","geometry":{"type":"Point","coordinates":[80.2643624,16.8711192]},"properties":{"secretariatName":"SUBBAYAGUDEM","villageName":"SUBBAYAGUDEM","sdtname":"PENUGANCHIPROLU","dtname":"NTR","stname":"ANDHRA PRADESH","country":"India"}},{"type":"Feature","geometry":{"type":"Point","coordinates":[80.322767,16.903519]},"properties":{"secretariatName":"SIVAPURAM","villageName":"SIVAPURAM","sdtname":"PENUGANCHIPROLU","dtname":"NTR","stname":"ANDHRA PRADESH","country":"India"}},{"type":"Feature","geometry":{"type":"Point","coordinates":[80.290563,16.817342]},"properties":{"secretariatName":"SANAGAPADU","villageName":"SANAGAPADU","sdtname":"PENUGANCHIPROLU","dtname":"NTR","stname":"ANDHRA PRADESH","country":"India"}},{"type":"Feature","geometry":{"type":"Point","coordinates":[80.2359733,16.905675]},"properties":{"secretariatName":"PENUGANCHIPROLU3","villageName":"PENUGANCHIPROLU3","sdtname":"PENUGANCHIPROLU","dtname":"NTR","stname":"ANDHRA PRADESH","country":"India"}},{"type":"Feature","geometry":{"type":"Point","coordinates":[80.2447029,16.9038946]},"properties":{"secretariatName":"PENUGANCHIPROLU2","villageName":"PENUGANCHIPROLU2","sdtname":"PENUGANCHIPROLU","dtname":"NTR","stname":"ANDHRA PRADESH","country":"India"}},{"type":"Feature","geometry":{"type":"Point","coordinates":[80.2461128,16.9041146]},"properties":{"secretariatName":"PENUGANCHIPROLU1","villageName":"PENUGANCHIPROLU1","sdtname":"PENUGANCHIPROLU","dtname":"NTR","stname":"ANDHRA PRADESH","country":"India"}},{"type":"Feature","geometry":{"type":"Point","coordinates":[80.2338533,16.8196435]},"properties":{"secretariatName":"NAVABPETA","villageName":"NAVABPETA","sdtname":"PENUGANCHIPROLU","dtname":"NTR","stname":"ANDHRA PRADESH","country":"India"}},{"type":"Feature","geometry":{"type":"Point","coordinates":[80.2339149,16.857898]},"properties":{"secretariatName":"MUNDLAPADU","villageName":"MUNDLAPADU","sdtname":"PENUGANCHIPROLU","dtname":"NTR","stname":"ANDHRA PRADESH","country":"India"}},{"type":"Feature","geometry":{"type":"Point","coordinates":[80.2662242,16.910207]},"properties":{"secretariatName":"MUCHINTHALA","villageName":"MUCHINTHALA","sdtname":"PENUGANCHIPROLU","dtname":"NTR","stname":"ANDHRA PRADESH","country":"India"}},{"type":"Feature","geometry":{"type":"Point","coordinates":[80.2192739,16.9017062]},"properties":{"secretariatName":"LINGAGUDEM","villageName":"LINGAGUDEM","sdtname":"PENUGANCHIPROLU","dtname":"NTR","stname":"ANDHRA PRADESH","country":"India"}},{"type":"Feature","geometry":{"type":"Point","coordinates":[80.1985941,16.8263084]},"properties":{"secretariatName":"KONAKANCHI","villageName":"KONAKANCHI","sdtname":"PENUGANCHIPROLU","dtname":"NTR","stname":"ANDHRA PRADESH","country":"India"}},{"type":"Feature","geometry":{"type":"Point","coordinates":[80.293772,16.868716]},"properties":{"secretariatName":"GUMMADIDURRU","villageName":"GUMMADIDURRU","sdtname":"PENUGANCHIPROLU","dtname":"NTR","stname":"ANDHRA PRADESH","country":"India"}},{"type":"Feature","geometry":{"type":"Point","coordinates":[80.2866603,16.8866497]},"properties":{"secretariatName":"ANIGANDLAPADU2","villageName":"ANIGANDLAPADU2","sdtname":"PENUGANCHIPROLU","dtname":"NTR","stname":"ANDHRA PRADESH","country":"India"}},{"type":"Feature","geometry":{"type":"Point","coordinates":[80.2866355,16.892766]},"properties":{"secretariatName":"ANIGANDLAPADU1","villageName":"ANIGANDLAPADU1","sdtname":"PENUGANCHIPROLU","dtname":"NTR","stname":"ANDHRA PRADESH","country":"India"}},{"type":"Feature","geometry":{"type":"Point","coordinates":[80.759399,16.885277]},"properties":{"secretariatName":"ANNERAOPETA","villageName":"ANNERAOPETA","sdtname":"REDDIGUDEM","dtname":"NTR","stname":"ANDHRA PRADESH","country":"India"}},{"type":"Feature","geometry":{"type":"Point","coordinates":[80.6919246,16.8956771]},"properties":{"secretariatName":"KUDAPA","villageName":"KUDAPA","sdtname":"REDDIGUDEM","dtname":"NTR","stname":"ANDHRA PRADESH","country":"India"}},{"type":"Feature","geometry":{"type":"Point","coordinates":[80.7240403,16.9084538]},"properties":{"secretariatName":"KUNAPARAJUPARVA1","villageName":"KUNAPARAJUPARVA1","sdtname":"REDDIGUDEM","dtname":"NTR","stname":"ANDHRA PRADESH","country":"India"}},{"type":"Feature","geometry":{"type":"Point","coordinates":[80.7241216,16.9101637]},"properties":{"secretariatName":"KUNAPARAJUPARVA2","villageName":"KUNAPARAJUPARVA2","sdtname":"REDDIGUDEM","dtname":"NTR","stname":"ANDHRA PRADESH","country":"India"}},{"type":"Feature","geometry":{"type":"Point","coordinates":[80.7464,16.9295]},"properties":{"secretariatName":"MADDULAPARVA","villageName":"MADDULAPARVA","sdtname":"REDDIGUDEM","dtname":"NTR","stname":"ANDHRA PRADESH","country":"India"}},{"type":"Feature","geometry":{"type":"Point","coordinates":[80.7212684,16.9561734]},"properties":{"secretariatName":"MUTCHINAPALLI","villageName":"MUTCHINAPALLI","sdtname":"REDDIGUDEM","dtname":"NTR","stname":"ANDHRA PRADESH","country":"India"}},{"type":"Feature","geometry":{"type":"Point","coordinates":[80.703629,16.80916]},"properties":{"secretariatName":"NAGULURU","villageName":"NAGULURU","sdtname":"REDDIGUDEM","dtname":"NTR","stname":"ANDHRA PRADESH","country":"India"}},{"type":"Feature","geometry":{"type":"Point","coordinates":[80.6845237,16.827391]},"properties":{"secretariatName":"NARUKULLAPADU","villageName":"NARUKULLAPADU","sdtname":"REDDIGUDEM","dtname":"NTR","stname":"ANDHRA PRADESH","country":"India"}},{"type":"Feature","geometry":{"type":"Point","coordinates":[80.7277672,16.8546471]},"properties":{"secretariatName":"RANGAPURAM","villageName":"RANGAPURAM","sdtname":"REDDIGUDEM","dtname":"NTR","stname":"ANDHRA PRADESH","country":"India"}},{"type":"Feature","geometry":{"type":"Point","coordinates":[80.735319,16.8707131]},"properties":{"secretariatName":"REDDIGUDEM1","villageName":"REDDIGUDEM1","sdtname":"REDDIGUDEM","dtname":"NTR","stname":"ANDHRA PRADESH","country":"India"}},{"type":"Feature","geometry":{"type":"Point","coordinates":[80.729537,16.863298]},"properties":{"secretariatName":"REDDIGUDEM2","villageName":"REDDIGUDEM2","sdtname":"REDDIGUDEM","dtname":"NTR","stname":"ANDHRA PRADESH","country":"India"}},{"type":"Feature","geometry":{"type":"Point","coordinates":[80.6653,16.87565]},"properties":{"secretariatName":"RUDRAVARAM","villageName":"RUDRAVARAM","sdtname":"REDDIGUDEM","dtname":"NTR","stname":"ANDHRA PRADESH","country":"India"}},{"type":"Feature","geometry":{"type":"Point","coordinates":[80.6125308,17.0737633]},"properties":{"secretariatName":"ANJANEYAPURAM","villageName":"ANJANEYAPURAM","sdtname":"TIRUVURU","dtname":"NTR","stname":"ANDHRA PRADESH","country":"India"}},{"type":"Feature","geometry":{"type":"Point","coordinates":[80.557058,17.029893]},"properties":{"secretariatName":"CHINTALAPADU","villageName":"CHINTALAPADU","sdtname":"TIRUVURU","dtname":"NTR","stname":"ANDHRA PRADESH","country":"India"}},{"type":"Feature","geometry":{"type":"Point","coordinates":[80.600253,17.040106]},"properties":{"secretariatName":"CHOWTAPALLI","villageName":"CHOWTAPALLI","sdtname":"TIRUVURU","dtname":"NTR","stname":"ANDHRA PRADESH","country":"India"}},{"type":"Feature","geometry":{"type":"Point","coordinates":[80.506508,17.073358]},"properties":{"secretariatName":"ERRAMADU","villageName":"ERRAMADU","sdtname":"TIRUVURU","dtname":"NTR","stname":"ANDHRA PRADESH","country":"India"}},{"type":"Feature","geometry":{"type":"Point","coordinates":[80.575948,17.0254731]},"properties":{"secretariatName":"GANUGAPADU","villageName":"GANUGAPADU","sdtname":"TIRUVURU","dtname":"NTR","stname":"ANDHRA PRADESH","country":"India"}},{"type":"Feature","geometry":{"type":"Point","coordinates":[80.635987,17.055643]},"properties":{"secretariatName":"KAKARLA","villageName":"KAKARLA","sdtname":"TIRUVURU","dtname":"NTR","stname":"ANDHRA PRADESH","country":"India"}},{"type":"Feature","geometry":{"type":"Point","coordinates":[80.649384,17.106357]},"properties":{"secretariatName":"KOKILAMPADU","villageName":"KOKILAMPADU","sdtname":"TIRUVURU","dtname":"NTR","stname":"ANDHRA PRADESH","country":"India"}},{"type":"Feature","geometry":{"type":"Point","coordinates":[80.54033651,17.056394]},"properties":{"secretariatName":"KOMMIREDDYPALLI","villageName":"KOMMIREDDYPALLI","sdtname":"TIRUVURU","dtname":"NTR","stname":"ANDHRA PRADESH","country":"India"}},{"type":"Feature","geometry":{"type":"Point","coordinates":[80.594628,17.022851]},"properties":{"secretariatName":"KOTHURU","villageName":"KOTHURU","sdtname":"TIRUVURU","dtname":"NTR","stname":"ANDHRA PRADESH","country":"India"}},{"type":"Feature","geometry":{"type":"Point","coordinates":[80.6244677,17.0788965]},"properties":{"secretariatName":"LAXMIPURAM","villageName":"LAXMIPURAM","sdtname":"TIRUVURU","dtname":"NTR","stname":"ANDHRA PRADESH","country":"India"}},{"type":"Feature","geometry":{"type":"Point","coordinates":[80.68449,17.059147]},"properties":{"secretariatName":"MALLELA","villageName":"MALLELA","sdtname":"TIRUVURU","dtname":"NTR","stname":"ANDHRA PRADESH","country":"India"}},{"type":"Feature","geometry":{"type":"Point","coordinates":[80.5757587,17.1152284]},"properties":{"secretariatName":"MUNUKULLA1","villageName":"MUNUKULLA1","sdtname":"TIRUVURU","dtname":"NTR","stname":"ANDHRA PRADESH","country":"India"}},{"type":"Feature","geometry":{"type":"Point","coordinates":[80.5813801,17.1322343]},"properties":{"secretariatName":"MUNUKULLA2","villageName":"MUNUKULLA2","sdtname":"TIRUVURU","dtname":"NTR","stname":"ANDHRA PRADESH","country":"India"}},{"type":"Feature","geometry":{"type":"Point","coordinates":[80.554551,17.0586498]},"properties":{"secretariatName":"MUSTIKUNTLA","villageName":"MUSTIKUNTLA","sdtname":"TIRUVURU","dtname":"NTR","stname":"ANDHRA PRADESH","country":"India"}},{"type":"Feature","geometry":{"type":"Point","coordinates":[80.576837,17.064144]},"properties":{"secretariatName":"ROLUPADI","villageName":"ROLUPADI","sdtname":"TIRUVURU","dtname":"NTR","stname":"ANDHRA PRADESH","country":"India"}},{"type":"Feature","geometry":{"type":"Point","coordinates":[80.562288,17.0894546]},"properties":{"secretariatName":"VAMAKUNTLA","villageName":"VAMAKUNTLA","sdtname":"TIRUVURU","dtname":"NTR","stname":"ANDHRA PRADESH","country":"India"}},{"type":"Feature","geometry":{"type":"Point","coordinates":[80.5351526,17.0934343]},"properties":{"secretariatName":"VAVILALA","villageName":"VAVILALA","sdtname":"TIRUVURU","dtname":"NTR","stname":"ANDHRA PRADESH","country":"India"}},{"type":"Feature","geometry":{"type":"Point","coordinates":[80.1775673,16.9011254]},"properties":{"secretariatName":"BHIMAVARAM1","villageName":"BHIMAVARAM1","sdtname":"VATSAVAI","dtname":"NTR","stname":"ANDHRA PRADESH","country":"India"}},{"type":"Feature","geometry":{"type":"Point","coordinates":[80.1776033,16.9016904]},"properties":{"secretariatName":"BHIMAVARAM2","villageName":"BHIMAVARAM2","sdtname":"VATSAVAI","dtname":"NTR","stname":"ANDHRA PRADESH","country":"India"}},{"type":"Feature","geometry":{"type":"Point","coordinates":[80.200942,16.933659]},"properties":{"secretariatName":"CHITTELA","villageName":"CHITTELA","sdtname":"VATSAVAI","dtname":"NTR","stname":"ANDHRA PRADESH","country":"India"}},{"type":"Feature","geometry":{"type":"Point","coordinates":[80.2308937,16.9959814]},"properties":{"secretariatName":"DABBAKUPALLI","villageName":"DABBAKUPALLI","sdtname":"VATSAVAI","dtname":"NTR","stname":"ANDHRA PRADESH","country":"India"}},{"type":"Feature","geometry":{"type":"Point","coordinates":[80.1726845,16.9329892]},"properties":{"secretariatName":"GOPINENIPALEM","villageName":"GOPINENIPALEM","sdtname":"VATSAVAI","dtname":"NTR","stname":"ANDHRA PRADESH","country":"India"}},{"type":"Feature","geometry":{"type":"Point","coordinates":[80.1839225,16.9743315]},"properties":{"secretariatName":"INDUGULLAPALLI","villageName":"INDUGULLAPALLI","sdtname":"VATSAVAI","dtname":"NTR","stname":"ANDHRA PRADESH","country":"India"}},{"type":"Feature","geometry":{"type":"Point","coordinates":[80.3038703,16.9625456]},"properties":{"secretariatName":"KAKARAVAI","villageName":"KAKARAVAI","sdtname":"VATSAVAI","dtname":"NTR","stname":"ANDHRA PRADESH","country":"India"}},{"type":"Feature","geometry":{"type":"Point","coordinates":[80.1915522,16.9610416]},"properties":{"secretariatName":"KANNEVEEDU","villageName":"KANNEVEEDU","sdtname":"VATSAVAI","dtname":"NTR","stname":"ANDHRA PRADESH","country":"India"}},{"type":"Feature","geometry":{"type":"Point","coordinates":[80.276281,16.9431569]},"properties":{"secretariatName":"KHAMBAMPADU","villageName":"KHAMBAMPADU","sdtname":"VATSAVAI","dtname":"NTR","stname":"ANDHRA PRADESH","country":"India"}},{"type":"Feature","geometry":{"type":"Point","coordinates":[80.2202277,16.9526149]},"properties":{"secretariatName":"LINGALA","villageName":"LINGALA","sdtname":"VATSAVAI","dtname":"NTR","stname":"ANDHRA PRADESH","country":"India"}},{"type":"Feature","geometry":{"type":"Point","coordinates":[80.3137426,16.9451396]},"properties":{"secretariatName":"MACHINENIPALEM","villageName":"MACHINENIPALEM","sdtname":"VATSAVAI","dtname":"NTR","stname":"ANDHRA PRADESH","country":"India"}},{"type":"Feature","geometry":{"type":"Point","coordinates":[80.189433,16.9257667]},"properties":{"secretariatName":"MAKKAPETA","villageName":"MAKKAPETA","sdtname":"VATSAVAI","dtname":"NTR","stname":"ANDHRA PRADESH","country":"India"}},{"type":"Feature","geometry":{"type":"Point","coordinates":[80.1398326,16.941985]},"properties":{"secretariatName":"MANGOLLU1","villageName":"MANGOLLU1","sdtname":"VATSAVAI","dtname":"NTR","stname":"ANDHRA PRADESH","country":"India"}},{"type":"Feature","geometry":{"type":"Point","coordinates":[80.129503,16.945517]},"properties":{"secretariatName":"MANGOLLU2","villageName":"MANGOLLU2","sdtname":"VATSAVAI","dtname":"NTR","stname":"ANDHRA PRADESH","country":"India"}},{"type":"Feature","geometry":{"type":"Point","coordinates":[80.1569357,16.9628403]},"properties":{"secretariatName":"PEDAMODUGUPALLI","villageName":"PEDAMODUGUPALLI","sdtname":"VATSAVAI","dtname":"NTR","stname":"ANDHRA PRADESH","country":"India"}},{"type":"Feature","geometry":{"type":"Point","coordinates":[80.1869126,17.0073259]},"properties":{"secretariatName":"POLAMPALLE","villageName":"POLAMPALLE","sdtname":"VATSAVAI","dtname":"NTR","stname":"ANDHRA PRADESH","country":"India"}},{"type":"Feature","geometry":{"type":"Point","coordinates":[80.2445152,16.9777932]},"properties":{"secretariatName":"VATSAVAI1","villageName":"VATSAVAI1","sdtname":"VATSAVAI","dtname":"NTR","stname":"ANDHRA PRADESH","country":"India"}},{"type":"Feature","geometry":{"type":"Point","coordinates":[80.238802,16.9819752]},"properties":{"secretariatName":"VATSAVAI2","villageName":"VATSAVAI2","sdtname":"VATSAVAI","dtname":"NTR","stname":"ANDHRA PRADESH","country":"India"}},{"type":"Feature","geometry":{"type":"Point","coordinates":[80.2458812,16.9337326]},"properties":{"secretariatName":"VEMAVARAM","villageName":"VEMAVARAM","sdtname":"VATSAVAI","dtname":"NTR","stname":"ANDHRA PRADESH","country":"India"}},{"type":"Feature","geometry":{"type":"Point","coordinates":[80.4435876,16.7717191]},"properties":{"secretariatName":"ALLURU1","villageName":"ALLURU1","sdtname":"VEERULLAPADU","dtname":"NTR","stname":"ANDHRA PRADESH","country":"India"}},{"type":"Feature","geometry":{"type":"Point","coordinates":[80.44225083,16.77013979]},"properties":{"secretariatName":"ALLURU2","villageName":"ALLURU2","sdtname":"VEERULLAPADU","dtname":"NTR","stname":"ANDHRA PRADESH","country":"India"}},{"type":"Feature","geometry":{"type":"Point","coordinates":[80.36796,16.73614]},"properties":{"secretariatName":"BODAVADA","villageName":"BODAVADA","sdtname":"VEERULLAPADU","dtname":"NTR","stname":"ANDHRA PRADESH","country":"India"}},{"type":"Feature","geometry":{"type":"Point","coordinates":[80.410567,16.7941953]},"properties":{"secretariatName":"CHOWTAPALLI","villageName":"CHOWTAPALLI","sdtname":"VEERULLAPADU","dtname":"NTR","stname":"ANDHRA PRADESH","country":"India"}},{"type":"Feature","geometry":{"type":"Point","coordinates":[80.4175022,16.8415144]},"properties":{"secretariatName":"DODDADEVARAPADU","villageName":"DODDADEVARAPADU","sdtname":"VEERULLAPADU","dtname":"NTR","stname":"ANDHRA PRADESH","country":"India"}},{"type":"Feature","geometry":{"type":"Point","coordinates":[80.4394716,16.8183055]},"properties":{"secretariatName":"JAYANTHI","villageName":"JAYANTHI","sdtname":"VEERULLAPADU","dtname":"NTR","stname":"ANDHRA PRADESH","country":"India"}},{"type":"Feature","geometry":{"type":"Point","coordinates":[80.4196647,16.7447999]},"properties":{"secretariatName":"JUJJURU1","villageName":"JUJJURU1","sdtname":"VEERULLAPADU","dtname":"NTR","stname":"ANDHRA PRADESH","country":"India"}},{"type":"Feature","geometry":{"type":"Point","coordinates":[80.435915,16.751532]},"properties":{"secretariatName":"JUJJURU2","villageName":"JUJJURU2","sdtname":"VEERULLAPADU","dtname":"NTR","stname":"ANDHRA PRADESH","country":"India"}},{"type":"Feature","geometry":{"type":"Point","coordinates":[80.378971,16.794708]},"properties":{"secretariatName":"KONTALAPALLI","villageName":"KONTALAPALLI","sdtname":"VEERULLAPADU","dtname":"NTR","stname":"ANDHRA PRADESH","country":"India"}},{"type":"Feature","geometry":{"type":"Point","coordinates":[80.422424,16.721515]},"properties":{"secretariatName":"NARASIMHARAOPALEM","villageName":"NARASIMHARAOPALEM","sdtname":"VEERULLAPADU","dtname":"NTR","stname":"ANDHRA PRADESH","country":"India"}},{"type":"Feature","geometry":{"type":"Point","coordinates":[80.4549545,16.7926698]},"properties":{"secretariatName":"PEDDAPURAM","villageName":"PEDDAPURAM","sdtname":"VEERULLAPADU","dtname":"NTR","stname":"ANDHRA PRADESH","country":"India"}},{"type":"Feature","geometry":{"type":"Point","coordinates":[80.382929,16.715648]},"properties":{"secretariatName":"PONNAVARAM","villageName":"PONNAVARAM","sdtname":"VEERULLAPADU","dtname":"NTR","stname":"ANDHRA PRADESH","country":"India"}},{"type":"Feature","geometry":{"type":"Point","coordinates":[80.3572355,16.7511087]},"properties":{"secretariatName":"TATIGUMMI","villageName":"TATIGUMMI","sdtname":"VEERULLAPADU","dtname":"NTR","stname":"ANDHRA PRADESH","country":"India"}},{"type":"Feature","geometry":{"type":"Point","coordinates":[80.3998875,16.8202299]},"properties":{"secretariatName":"VEERULLAPADU","villageName":"VEERULLAPADU","sdtname":"VEERULLAPADU","dtname":"NTR","stname":"ANDHRA PRADESH","country":"India"}},{"type":"Feature","geometry":{"type":"Point","coordinates":[80.3717472,16.7650476]},"properties":{"secretariatName":"VELLANKI","villageName":"VELLANKI","sdtname":"VEERULLAPADU","dtname":"NTR","stname":"ANDHRA PRADESH","country":"India"}},{"type":"Feature","geometry":{"type":"Point","coordinates":[80.6268732,16.5648454]},"properties":{"secretariatName":"AMBAPURAM","villageName":"AMBAPURAM","sdtname":"VIJAYAWADA RURAL","dtname":"NTR","stname":"ANDHRA PRADESH","country":"India"}},{"type":"Feature","geometry":{"type":"Point","coordinates":[80.7044333,16.5144567]},"properties":{"secretariatName":"ENIKEPADU1","villageName":"ENIKEPADU1","sdtname":"VIJAYAWADA RURAL","dtname":"NTR","stname":"ANDHRA PRADESH","country":"India"}},{"type":"Feature","geometry":{"type":"Point","coordinates":[80.7087621,16.5113292]},"properties":{"secretariatName":"ENIKEPADU2","villageName":"ENIKEPADU2","sdtname":"VIJAYAWADA RURAL","dtname":"NTR","stname":"ANDHRA PRADESH","country":"India"}},{"type":"Feature","geometry":{"type":"Point","coordinates":[80.577865,16.5413316]},"properties":{"secretariatName":"GOLLAPUDI1","villageName":"GOLLAPUDI1","sdtname":"VIJAYAWADA RURAL","dtname":"NTR","stname":"ANDHRA PRADESH","country":"India"}},{"type":"Feature","geometry":{"type":"Point","coordinates":[80.5804395,16.5488569]},"properties":{"secretariatName":"GOLLAPUDI2","villageName":"GOLLAPUDI2","sdtname":"VIJAYAWADA RURAL","dtname":"NTR","stname":"ANDHRA PRADESH","country":"India"}},{"type":"Feature","geometry":{"type":"Point","coordinates":[80.582338,16.543865]},"properties":{"secretariatName":"GOLLAPUDI3","villageName":"GOLLAPUDI3","sdtname":"VIJAYAWADA RURAL","dtname":"NTR","stname":"ANDHRA PRADESH","country":"India"}},{"type":"Feature","geometry":{"type":"Point","coordinates":[80.602274,16.54647]},"properties":{"secretariatName":"GOLLAPUDI4","villageName":"GOLLAPUDI4","sdtname":"VIJAYAWADA RURAL","dtname":"NTR","stname":"ANDHRA PRADESH","country":"India"}},{"type":"Feature","geometry":{"type":"Point","coordinates":[80.6134728,16.555638]},"properties":{"secretariatName":"GOLLAPUDI5","villageName":"GOLLAPUDI5","sdtname":"VIJAYAWADA RURAL","dtname":"NTR","stname":"ANDHRA PRADESH","country":"India"}},{"type":"Feature","geometry":{"type":"Point","coordinates":[80.7491511,16.5117562]},"properties":{"secretariatName":"GUDAVALLI1","villageName":"GUDAVALLI1","sdtname":"VIJAYAWADA RURAL","dtname":"NTR","stname":"ANDHRA PRADESH","country":"India"}},{"type":"Feature","geometry":{"type":"Point","coordinates":[80.752364,16.506364]},"properties":{"secretariatName":"GUDAVALLI2","villageName":"GUDAVALLI2","sdtname":"VIJAYAWADA RURAL","dtname":"NTR","stname":"ANDHRA PRADESH","country":"India"}},{"type":"Feature","geometry":{"type":"Point","coordinates":[80.6185798,16.5825961]},"properties":{"secretariatName":"JAKKAMPUDI1","villageName":"JAKKAMPUDI1","sdtname":"VIJAYAWADA RURAL","dtname":"NTR","stname":"ANDHRA PRADESH","country":"India"}},{"type":"Feature","geometry":{"type":"Point","coordinates":[80.6118723,16.5572173]},"properties":{"secretariatName":"JAKKAMPUDI2","villageName":"JAKKAMPUDI2","sdtname":"VIJAYAWADA RURAL","dtname":"NTR","stname":"ANDHRA PRADESH","country":"India"}},{"type":"Feature","geometry":{"type":"Point","coordinates":[80.6118111,16.5572217]},"properties":{"secretariatName":"JAKKAMPUDI3","villageName":"JAKKAMPUDI3","sdtname":"VIJAYAWADA RURAL","dtname":"NTR","stname":"ANDHRA PRADESH","country":"India"}},{"type":"Feature","geometry":{"type":"Point","coordinates":[80.6173831,16.6056695]},"properties":{"secretariatName":"K.TADEPALLI","villageName":"K.TADEPALLI","sdtname":"VIJAYAWADA RURAL","dtname":"NTR","stname":"ANDHRA PRADESH","country":"India"}},{"type":"Feature","geometry":{"type":"Point","coordinates":[80.7200614,16.5094302]},"properties":{"secretariatName":"NIDAMANURU1","villageName":"NIDAMANURU1","sdtname":"VIJAYAWADA RURAL","dtname":"NTR","stname":"ANDHRA PRADESH","country":"India"}},{"type":"Feature","geometry":{"type":"Point","coordinates":[80.726149,16.5078862]},"properties":{"secretariatName":"NIDAMANURU2","villageName":"NIDAMANURU2","sdtname":"VIJAYAWADA RURAL","dtname":"NTR","stname":"ANDHRA PRADESH","country":"India"}},{"type":"Feature","geometry":{"type":"Point","coordinates":[80.7200537,16.5094525]},"properties":{"secretariatName":"NIDAMANURU3","villageName":"NIDAMANURU3","sdtname":"VIJAYAWADA RURAL","dtname":"NTR","stname":"ANDHRA PRADESH","country":"India"}},{"type":"Feature","geometry":{"type":"Point","coordinates":[80.6840127,16.5765123]},"properties":{"secretariatName":"NUNNA1","villageName":"NUNNA1","sdtname":"VIJAYAWADA RURAL","dtname":"NTR","stname":"ANDHRA PRADESH","country":"India"}},{"type":"Feature","geometry":{"type":"Point","coordinates":[80.6834548,16.5764795]},"properties":{"secretariatName":"NUNNA2","villageName":"NUNNA2","sdtname":"VIJAYAWADA RURAL","dtname":"NTR","stname":"ANDHRA PRADESH","country":"India"}},{"type":"Feature","geometry":{"type":"Point","coordinates":[80.6864257,16.5802665]},"properties":{"secretariatName":"NUNNA3","villageName":"NUNNA3","sdtname":"VIJAYAWADA RURAL","dtname":"NTR","stname":"ANDHRA PRADESH","country":"India"}},{"type":"Feature","geometry":{"type":"Point","coordinates":[80.6306347,16.5683757]},"properties":{"secretariatName":"P.NAINAVARAM","villageName":"P.NAINAVARAM","sdtname":"VIJAYAWADA RURAL","dtname":"NTR","stname":"ANDHRA PRADESH","country":"India"}},{"type":"Feature","geometry":{"type":"Point","coordinates":[80.578011,16.5986245]},"properties":{"secretariatName":"PAIDURUPADU","villageName":"PAIDURUPADU","sdtname":"VIJAYAWADA RURAL","dtname":"NTR","stname":"ANDHRA PRADESH","country":"India"}},{"type":"Feature","geometry":{"type":"Point","coordinates":[80.6649122,16.5787251]},"properties":{"secretariatName":"PATHAPADU","villageName":"PATHAPADU","sdtname":"VIJAYAWADA RURAL","dtname":"NTR","stname":"ANDHRA PRADESH","country":"India"}},{"type":"Feature","geometry":{"type":"Point","coordinates":[80.688345,16.5226463]},"properties":{"secretariatName":"PRASADAMPADU1","villageName":"PRASADAMPADU1","sdtname":"VIJAYAWADA RURAL","dtname":"NTR","stname":"ANDHRA PRADESH","country":"India"}},{"type":"Feature","geometry":{"type":"Point","coordinates":[80.6903797,16.517194]},"properties":{"secretariatName":"PRASADAMPADU2","villageName":"PRASADAMPADU2","sdtname":"VIJAYAWADA RURAL","dtname":"NTR","stname":"ANDHRA PRADESH","country":"India"}},{"type":"Feature","geometry":{"type":"Point","coordinates":[80.6861104,16.5206989]},"properties":{"secretariatName":"PRASADAMPADU3","villageName":"PRASADAMPADU3","sdtname":"VIJAYAWADA RURAL","dtname":"NTR","stname":"ANDHRA PRADESH","country":"India"}},{"type":"Feature","geometry":{"type":"Point","coordinates":[80.6845906,16.5240739]},"properties":{"secretariatName":"RAMAVARAPPADU1","villageName":"RAMAVARAPPADU1","sdtname":"VIJAYAWADA RURAL","dtname":"NTR","stname":"ANDHRA PRADESH","country":"India"}},{"type":"Feature","geometry":{"type":"Point","coordinates":[80.6855477,16.5221259]},"properties":{"secretariatName":"RAMAVARAPPADU2","villageName":"RAMAVARAPPADU2","sdtname":"VIJAYAWADA RURAL","dtname":"NTR","stname":"ANDHRA PRADESH","country":"India"}},{"type":"Feature","geometry":{"type":"Point","coordinates":[80.684327,16.5205978]},"properties":{"secretariatName":"RAMAVARAPPADU3","villageName":"RAMAVARAPPADU3","sdtname":"VIJAYAWADA RURAL","dtname":"NTR","stname":"ANDHRA PRADESH","country":"India"}},{"type":"Feature","geometry":{"type":"Point","coordinates":[80.6841651,16.5268351]},"properties":{"secretariatName":"RAMAVARAPPADU4","villageName":"RAMAVARAPPADU4","sdtname":"VIJAYAWADA RURAL","dtname":"NTR","stname":"ANDHRA PRADESH","country":"India"}},{"type":"Feature","geometry":{"type":"Point","coordinates":[80.6886468,16.5276419]},"properties":{"secretariatName":"RAMAVARAPPADU5","villageName":"RAMAVARAPPADU5","sdtname":"VIJAYAWADA RURAL","dtname":"NTR","stname":"ANDHRA PRADESH","country":"India"}},{"type":"Feature","geometry":{"type":"Point","coordinates":[80.5669033,16.5738244]},"properties":{"secretariatName":"RAYANAPADU","villageName":"RAYANAPADU","sdtname":"VIJAYAWADA RURAL","dtname":"NTR","stname":"ANDHRA PRADESH","country":"India"}},{"type":"Feature","geometry":{"type":"Point","coordinates":[80.6730118,16.5041794]},"properties":{"secretariatName":"Testing1","villageName":"Testing1","sdtname":"VIJAYAWADA RURAL","dtname":"NTR","stname":"ANDHRA PRADESH","country":"India"}},{"type":"Feature","geometry":{"type":"Point","coordinates":[80.7569591,16.9667496]},"properties":{"secretariatName":"CHANDRUPATLA","villageName":"CHANDRUPATLA","sdtname":"VISSANNAPETA","dtname":"NTR","stname":"ANDHRA PRADESH","country":"India"}},{"type":"Feature","geometry":{"type":"Point","coordinates":[80.7690594,17.0085935]},"properties":{"secretariatName":"KALAGARA","villageName":"KALAGARA","sdtname":"VISSANNAPETA","dtname":"NTR","stname":"ANDHRA PRADESH","country":"India"}},{"type":"Feature","geometry":{"type":"Point","coordinates":[80.8342486,16.9070006]},"properties":{"secretariatName":"KONDAPARVA","villageName":"KONDAPARVA","sdtname":"VISSANNAPETA","dtname":"NTR","stname":"ANDHRA PRADESH","country":"India"}},{"type":"Feature","geometry":{"type":"Point","coordinates":[80.7766557,17.0366194]},"properties":{"secretariatName":"KORLAMANDA","villageName":"KORLAMANDA","sdtname":"VISSANNAPETA","dtname":"NTR","stname":"ANDHRA PRADESH","country":"India"}},{"type":"Feature","geometry":{"type":"Point","coordinates":[80.8072384,16.985418]},"properties":{"secretariatName":"NARASAPURAM1","villageName":"NARASAPURAM1","sdtname":"VISSANNAPETA","dtname":"NTR","stname":"ANDHRA PRADESH","country":"India"}},{"type":"Feature","geometry":{"type":"Point","coordinates":[80.805146,16.977718]},"properties":{"secretariatName":"NARASAPURAM2","villageName":"NARASAPURAM2","sdtname":"VISSANNAPETA","dtname":"NTR","stname":"ANDHRA PRADESH","country":"India"}},{"type":"Feature","geometry":{"type":"Point","coordinates":[80.715277,17.021919]},"properties":{"secretariatName":"PUTRELA1","villageName":"PUTRELA1","sdtname":"VISSANNAPETA","dtname":"NTR","stname":"ANDHRA PRADESH","country":"India"}},{"type":"Feature","geometry":{"type":"Point","coordinates":[80.713024,17.003534]},"properties":{"secretariatName":"PUTRELA2","villageName":"PUTRELA2","sdtname":"VISSANNAPETA","dtname":"NTR","stname":"ANDHRA PRADESH","country":"India"}},{"type":"Feature","geometry":{"type":"Point","coordinates":[80.7964358,16.9610725]},"properties":{"secretariatName":"TATAKUNTLA","villageName":"TATAKUNTLA","sdtname":"VISSANNAPETA","dtname":"NTR","stname":"ANDHRA PRADESH","country":"India"}},{"type":"Feature","geometry":{"type":"Point","coordinates":[80.7276079,16.9776893]},"properties":{"secretariatName":"TELLADEVARAPALLE","villageName":"TELLADEVARAPALLE","sdtname":"VISSANNAPETA","dtname":"NTR","stname":"ANDHRA PRADESH","country":"India"}},{"type":"Feature","geometry":{"type":"Point","coordinates":[80.725429,17.06299]},"properties":{"secretariatName":"VEMIREDDIPALLE","villageName":"VEMIREDDIPALLE","sdtname":"VISSANNAPETA","dtname":"NTR","stname":"ANDHRA PRADESH","country":"India"}},{"type":"Feature","geometry":{"type":"Point","coordinates":[80.7816108,16.9429599]},"properties":{"secretariatName":"VISSANNAPET1","villageName":"VISSANNAPET1","sdtname":"VISSANNAPETA","dtname":"NTR","stname":"ANDHRA PRADESH","country":"India"}},{"type":"Feature","geometry":{"type":"Point","coordinates":[80.7891794,16.9382574]},"properties":{"secretariatName":"VISSANNAPET2","villageName":"VISSANNAPET2","sdtname":"VISSANNAPETA","dtname":"NTR","stname":"ANDHRA PRADESH","country":"India"}},{"type":"Feature","geometry":{"type":"Point","coordinates":[80.783573,16.943836]},"properties":{"secretariatName":"VISSANNAPET3","villageName":"VISSANNAPET3","sdtname":"VISSANNAPETA","dtname":"NTR","stname":"ANDHRA PRADESH","country":"India"}},{"type":"Feature","geometry":{"type":"Point","coordinates":[80.7747607,16.9451297]},"properties":{"secretariatName":"VISSANNAPET4","villageName":"VISSANNAPET4","sdtname":"VISSANNAPETA","dtname":"NTR","stname":"ANDHRA PRADESH","country":"India"}}]}