{"type":"FeatureCollection","features":[{"type":"Feature","geometry":{"type":"Point","coordinates":[80.0519152,14.6821657]},"properties":{"secretariatName":"ALLUR1","villageName":"ALLUR1","sdtname":"ALLUR","dtname":"SRI POTTI SRIRAMULU NELLORE","stname":"ANDHRA PRADESH","country":"India"}},{"type":"Feature","geometry":{"type":"Point","coordinates":[80.055784,14.683869]},"properties":{"secretariatName":"ALLUR2","villageName":"ALLUR2","sdtname":"ALLUR","dtname":"SRI POTTI SRIRAMULU NELLORE","stname":"ANDHRA PRADESH","country":"India"}},{"type":"Feature","geometry":{"type":"Point","coordinates":[80.055648,14.683807]},"properties":{"secretariatName":"ALLUR3","villageName":"ALLUR3","sdtname":"ALLUR","dtname":"SRI POTTI SRIRAMULU NELLORE","stname":"ANDHRA PRADESH","country":"India"}},{"type":"Feature","geometry":{"type":"Point","coordinates":[80.052798,14.689686]},"properties":{"secretariatName":"ALLUR4","villageName":"ALLUR4","sdtname":"ALLUR","dtname":"SRI POTTI SRIRAMULU NELLORE","stname":"ANDHRA PRADESH","country":"India"}},{"type":"Feature","geometry":{"type":"Point","coordinates":[80.035101,14.630986]},"properties":{"secretariatName":"BEERAMGUNTA","villageName":"BEERAMGUNTA","sdtname":"ALLUR","dtname":"SRI POTTI SRIRAMULU NELLORE","stname":"ANDHRA PRADESH","country":"India"}},{"type":"Feature","geometry":{"type":"Point","coordinates":[80.1004726,14.677084]},"properties":{"secretariatName":"EASTGOGULAPALLI","villageName":"EASTGOGULAPALLI","sdtname":"ALLUR","dtname":"SRI POTTI SRIRAMULU NELLORE","stname":"ANDHRA PRADESH","country":"India"}},{"type":"Feature","geometry":{"type":"Point","coordinates":[80.0187332,14.6781873]},"properties":{"secretariatName":"GRADDAGUNTA","villageName":"GRADDAGUNTA","sdtname":"ALLUR","dtname":"SRI POTTI SRIRAMULU NELLORE","stname":"ANDHRA PRADESH","country":"India"}},{"type":"Feature","geometry":{"type":"Point","coordinates":[80.0663106,14.6550416]},"properties":{"secretariatName":"INDUPUR","villageName":"INDUPUR","sdtname":"ALLUR","dtname":"SRI POTTI SRIRAMULU NELLORE","stname":"ANDHRA PRADESH","country":"India"}},{"type":"Feature","geometry":{"type":"Point","coordinates":[80.09482,14.733495]},"properties":{"secretariatName":"ISKAPALLI1","villageName":"ISKAPALLI1","sdtname":"ALLUR","dtname":"SRI POTTI SRIRAMULU NELLORE","stname":"ANDHRA PRADESH","country":"India"}},{"type":"Feature","geometry":{"type":"Point","coordinates":[80.094752,14.733613]},"properties":{"secretariatName":"ISKAPALLI2","villageName":"ISKAPALLI2","sdtname":"ALLUR","dtname":"SRI POTTI SRIRAMULU NELLORE","stname":"ANDHRA PRADESH","country":"India"}},{"type":"Feature","geometry":{"type":"Point","coordinates":[80.04038053,14.6492703]},"properties":{"secretariatName":"NORTHMOPUR","villageName":"NORTHMOPUR","sdtname":"ALLUR","dtname":"SRI POTTI SRIRAMULU NELLORE","stname":"ANDHRA PRADESH","country":"India"}},{"type":"Feature","geometry":{"type":"Point","coordinates":[80.0867415,14.6552783]},"properties":{"secretariatName":"PURINI","villageName":"PURINI","sdtname":"ALLUR","dtname":"SRI POTTI SRIRAMULU NELLORE","stname":"ANDHRA PRADESH","country":"India"}},{"type":"Feature","geometry":{"type":"Point","coordinates":[80.0233519,14.7017488]},"properties":{"secretariatName":"SINGAPETA","villageName":"SINGAPETA","sdtname":"ALLUR","dtname":"SRI POTTI SRIRAMULU NELLORE","stname":"ANDHRA PRADESH","country":"India"}},{"type":"Feature","geometry":{"type":"Point","coordinates":[79.4280925,14.6239734]},"properties":{"secretariatName":"AMANICHIRUVELLA","villageName":"AMANICHIRUVELLA","sdtname":"ANANTHASAGARAM","dtname":"SRI POTTI SRIRAMULU NELLORE","stname":"ANDHRA PRADESH","country":"India"}},{"type":"Feature","geometry":{"type":"Point","coordinates":[79.410312,14.572458]},"properties":{"secretariatName":"ANANTASAGARAM1","villageName":"ANANTASAGARAM1","sdtname":"ANANTHASAGARAM","dtname":"SRI POTTI SRIRAMULU NELLORE","stname":"ANDHRA PRADESH","country":"India"}},{"type":"Feature","geometry":{"type":"Point","coordinates":[79.4041228,14.5755571]},"properties":{"secretariatName":"ANANTASAGARAM2","villageName":"ANANTASAGARAM2","sdtname":"ANANTHASAGARAM","dtname":"SRI POTTI SRIRAMULU NELLORE","stname":"ANDHRA PRADESH","country":"India"}},{"type":"Feature","geometry":{"type":"Point","coordinates":[79.3157,14.6227]},"properties":{"secretariatName":"BOMMAVARAM","villageName":"BOMMAVARAM","sdtname":"ANANTHASAGARAM","dtname":"SRI POTTI SRIRAMULU NELLORE","stname":"ANDHRA PRADESH","country":"India"}},{"type":"Feature","geometry":{"type":"Point","coordinates":[79.3336781,14.5829917]},"properties":{"secretariatName":"CHILAKALAMARRI","villageName":"CHILAKALAMARRI","sdtname":"ANANTHASAGARAM","dtname":"SRI POTTI SRIRAMULU NELLORE","stname":"ANDHRA PRADESH","country":"India"}},{"type":"Feature","geometry":{"type":"Point","coordinates":[79.444369,14.579894]},"properties":{"secretariatName":"DEVARAYAPALLIBIT-1","villageName":"DEVARAYAPALLIBIT-1","sdtname":"ANANTHASAGARAM","dtname":"SRI POTTI SRIRAMULU NELLORE","stname":"ANDHRA PRADESH","country":"India"}},{"type":"Feature","geometry":{"type":"Point","coordinates":[79.3537996,14.577503]},"properties":{"secretariatName":"KAMIREDDYPADU","villageName":"KAMIREDDYPADU","sdtname":"ANANTHASAGARAM","dtname":"SRI POTTI SRIRAMULU NELLORE","stname":"ANDHRA PRADESH","country":"India"}},{"type":"Feature","geometry":{"type":"Point","coordinates":[79.4800858,14.5873591]},"properties":{"secretariatName":"KOTHAPALLI","villageName":"KOTHAPALLI","sdtname":"ANANTHASAGARAM","dtname":"SRI POTTI SRIRAMULU NELLORE","stname":"ANDHRA PRADESH","country":"India"}},{"type":"Feature","geometry":{"type":"Point","coordinates":[79.428421,14.572201]},"properties":{"secretariatName":"LINGAMMAGUNTA","villageName":"LINGAMMAGUNTA","sdtname":"ANANTHASAGARAM","dtname":"SRI POTTI SRIRAMULU NELLORE","stname":"ANDHRA PRADESH","country":"India"}},{"type":"Feature","geometry":{"type":"Point","coordinates":[79.376535,14.552272]},"properties":{"secretariatName":"MANCHALAPALLI","villageName":"MANCHALAPALLI","sdtname":"ANANTHASAGARAM","dtname":"SRI POTTI SRIRAMULU NELLORE","stname":"ANDHRA PRADESH","country":"India"}},{"type":"Feature","geometry":{"type":"Point","coordinates":[79.4995055,14.5886375]},"properties":{"secretariatName":"MINAGALLU","villageName":"MINAGALLU","sdtname":"ANANTHASAGARAM","dtname":"SRI POTTI SRIRAMULU NELLORE","stname":"ANDHRA PRADESH","country":"India"}},{"type":"Feature","geometry":{"type":"Point","coordinates":[79.3253488,14.5261343]},"properties":{"secretariatName":"PADAMATIKAMBHAMPADU","villageName":"PADAMATIKAMBHAMPADU","sdtname":"ANANTHASAGARAM","dtname":"SRI POTTI SRIRAMULU NELLORE","stname":"ANDHRA PRADESH","country":"India"}},{"type":"Feature","geometry":{"type":"Point","coordinates":[79.3408524,14.5594296]},"properties":{"secretariatName":"PATHALAPALLI","villageName":"PATHALAPALLI","sdtname":"ANANTHASAGARAM","dtname":"SRI POTTI SRIRAMULU NELLORE","stname":"ANDHRA PRADESH","country":"India"}},{"type":"Feature","geometry":{"type":"Point","coordinates":[79.512039,14.5885425]},"properties":{"secretariatName":"REVURU","villageName":"REVURU","sdtname":"ANANTHASAGARAM","dtname":"SRI POTTI SRIRAMULU NELLORE","stname":"ANDHRA PRADESH","country":"India"}},{"type":"Feature","geometry":{"type":"Point","coordinates":[79.3135452,14.499326]},"properties":{"secretariatName":"SOMASILA","villageName":"SOMASILA","sdtname":"ANANTHASAGARAM","dtname":"SRI POTTI SRIRAMULU NELLORE","stname":"ANDHRA PRADESH","country":"India"}},{"type":"Feature","geometry":{"type":"Point","coordinates":[79.359202,14.53195]},"properties":{"secretariatName":"UPPALAPADU","villageName":"UPPALAPADU","sdtname":"ANANTHASAGARAM","dtname":"SRI POTTI SRIRAMULU NELLORE","stname":"ANDHRA PRADESH","country":"India"}},{"type":"Feature","geometry":{"type":"Point","coordinates":[79.6726358,14.6871136]},"properties":{"secretariatName":"ANUMASAMUDRAM","villageName":"ANUMASAMUDRAM","sdtname":"ANUMASAMUDRAM PETA","dtname":"SRI POTTI SRIRAMULU NELLORE","stname":"ANDHRA PRADESH","country":"India"}},{"type":"Feature","geometry":{"type":"Point","coordinates":[79.675517,14.691357]},"properties":{"secretariatName":"ANUMASAMUDRAMPETA1","villageName":"ANUMASAMUDRAMPETA1","sdtname":"ANUMASAMUDRAM PETA","dtname":"SRI POTTI SRIRAMULU NELLORE","stname":"ANDHRA PRADESH","country":"India"}},{"type":"Feature","geometry":{"type":"Point","coordinates":[79.675517,14.691357]},"properties":{"secretariatName":"ANUMASAMUDRAMPETA2","villageName":"ANUMASAMUDRAMPETA2","sdtname":"ANUMASAMUDRAM PETA","dtname":"SRI POTTI SRIRAMULU NELLORE","stname":"ANDHRA PRADESH","country":"India"}},{"type":"Feature","geometry":{"type":"Point","coordinates":[79.728359,14.684695]},"properties":{"secretariatName":"CHIRAMANA","villageName":"CHIRAMANA","sdtname":"ANUMASAMUDRAM PETA","dtname":"SRI POTTI SRIRAMULU NELLORE","stname":"ANDHRA PRADESH","country":"India"}},{"type":"Feature","geometry":{"type":"Point","coordinates":[79.63671,14.742867]},"properties":{"secretariatName":"CHOUTABHEEMAVARAM","villageName":"CHOUTABHEEMAVARAM","sdtname":"ANUMASAMUDRAM PETA","dtname":"SRI POTTI SRIRAMULU NELLORE","stname":"ANDHRA PRADESH","country":"India"}},{"type":"Feature","geometry":{"type":"Point","coordinates":[79.659373,14.750134]},"properties":{"secretariatName":"GUDIPADU","villageName":"GUDIPADU","sdtname":"ANUMASAMUDRAM PETA","dtname":"SRI POTTI SRIRAMULU NELLORE","stname":"ANDHRA PRADESH","country":"India"}},{"type":"Feature","geometry":{"type":"Point","coordinates":[79.7138702,14.7573416]},"properties":{"secretariatName":"GUMPARLAPADU","villageName":"GUMPARLAPADU","sdtname":"ANUMASAMUDRAM PETA","dtname":"SRI POTTI SRIRAMULU NELLORE","stname":"ANDHRA PRADESH","country":"India"}},{"type":"Feature","geometry":{"type":"Point","coordinates":[79.722126,14.71738]},"properties":{"secretariatName":"JAMMAVARAM","villageName":"JAMMAVARAM","sdtname":"ANUMASAMUDRAM PETA","dtname":"SRI POTTI SRIRAMULU NELLORE","stname":"ANDHRA PRADESH","country":"India"}},{"type":"Feature","geometry":{"type":"Point","coordinates":[79.740066,14.714811]},"properties":{"secretariatName":"KAVALIYADAVALLI","villageName":"KAVALIYADAVALLI","sdtname":"ANUMASAMUDRAM PETA","dtname":"SRI POTTI SRIRAMULU NELLORE","stname":"ANDHRA PRADESH","country":"India"}},{"type":"Feature","geometry":{"type":"Point","coordinates":[79.690948,14.633083]},"properties":{"secretariatName":"KONDAMEEDAKONDURU","villageName":"KONDAMEEDAKONDURU","sdtname":"ANUMASAMUDRAM PETA","dtname":"SRI POTTI SRIRAMULU NELLORE","stname":"ANDHRA PRADESH","country":"India"}},{"type":"Feature","geometry":{"type":"Point","coordinates":[79.658905,14.729257]},"properties":{"secretariatName":"PEDDAABBIPURAM","villageName":"PEDDAABBIPURAM","sdtname":"ANUMASAMUDRAM PETA","dtname":"SRI POTTI SRIRAMULU NELLORE","stname":"ANDHRA PRADESH","country":"India"}},{"type":"Feature","geometry":{"type":"Point","coordinates":[79.605781,14.718299]},"properties":{"secretariatName":"RAJAVOLU","villageName":"RAJAVOLU","sdtname":"ANUMASAMUDRAM PETA","dtname":"SRI POTTI SRIRAMULU NELLORE","stname":"ANDHRA PRADESH","country":"India"}},{"type":"Feature","geometry":{"type":"Point","coordinates":[79.7814998,14.6665515]},"properties":{"secretariatName":"SRIKOLANU","villageName":"SRIKOLANU","sdtname":"ANUMASAMUDRAM PETA","dtname":"SRI POTTI SRIRAMULU NELLORE","stname":"ANDHRA PRADESH","country":"India"}},{"type":"Feature","geometry":{"type":"Point","coordinates":[79.6291674,14.5748828]},"properties":{"secretariatName":"APPARAOPALEM","villageName":"APPARAOPALEM","sdtname":"ATMAKUR","dtname":"SRI POTTI SRIRAMULU NELLORE","stname":"ANDHRA PRADESH","country":"India"}},{"type":"Feature","geometry":{"type":"Point","coordinates":[79.613068,14.585524]},"properties":{"secretariatName":"BATTEPADU","villageName":"BATTEPADU","sdtname":"ATMAKUR","dtname":"SRI POTTI SRIRAMULU NELLORE","stname":"ANDHRA PRADESH","country":"India"}},{"type":"Feature","geometry":{"type":"Point","coordinates":[79.561477,14.683211]},"properties":{"secretariatName":"BOYALACHIRUVELLA","villageName":"BOYALACHIRUVELLA","sdtname":"ATMAKUR","dtname":"SRI POTTI SRIRAMULU NELLORE","stname":"ANDHRA PRADESH","country":"India"}},{"type":"Feature","geometry":{"type":"Point","coordinates":[79.574514,14.633599]},"properties":{"secretariatName":"CHERLOYADAVALLI","villageName":"CHERLOYADAVALLI","sdtname":"ATMAKUR","dtname":"SRI POTTI SRIRAMULU NELLORE","stname":"ANDHRA PRADESH","country":"India"}},{"type":"Feature","geometry":{"type":"Point","coordinates":[79.541861,14.676405]},"properties":{"secretariatName":"KARATAMPADU","villageName":"KARATAMPADU","sdtname":"ATMAKUR","dtname":"SRI POTTI SRIRAMULU NELLORE","stname":"ANDHRA PRADESH","country":"India"}},{"type":"Feature","geometry":{"type":"Point","coordinates":[79.521275,14.634893]},"properties":{"secretariatName":"MAHIMALURU","villageName":"MAHIMALURU","sdtname":"ATMAKUR","dtname":"SRI POTTI SRIRAMULU NELLORE","stname":"ANDHRA PRADESH","country":"India"}},{"type":"Feature","geometry":{"type":"Point","coordinates":[79.576575,14.597098]},"properties":{"secretariatName":"MURUGALLA","villageName":"MURUGALLA","sdtname":"ATMAKUR","dtname":"SRI POTTI SRIRAMULU NELLORE","stname":"ANDHRA PRADESH","country":"India"}},{"type":"Feature","geometry":{"type":"Point","coordinates":[79.598202,14.6135]},"properties":{"secretariatName":"NUVVURUPADU","villageName":"NUVVURUPADU","sdtname":"ATMAKUR","dtname":"SRI POTTI SRIRAMULU NELLORE","stname":"ANDHRA PRADESH","country":"India"}},{"type":"Feature","geometry":{"type":"Point","coordinates":[79.491969,14.632962]},"properties":{"secretariatName":"RAMASWAMIPALLI","villageName":"RAMASWAMIPALLI","sdtname":"ATMAKUR","dtname":"SRI POTTI SRIRAMULU NELLORE","stname":"ANDHRA PRADESH","country":"India"}},{"type":"Feature","geometry":{"type":"Point","coordinates":[79.6722138,14.6113489]},"properties":{"secretariatName":"VASILI","villageName":"VASILI","sdtname":"ATMAKUR","dtname":"SRI POTTI SRIRAMULU NELLORE","stname":"ANDHRA PRADESH","country":"India"}},{"type":"Feature","geometry":{"type":"Point","coordinates":[79.507744,14.716404]},"properties":{"secretariatName":"VENNAWADA","villageName":"VENNAWADA","sdtname":"ATMAKUR","dtname":"SRI POTTI SRIRAMULU NELLORE","stname":"ANDHRA PRADESH","country":"India"}},{"type":"Feature","geometry":{"type":"Point","coordinates":[79.9977561,14.7883147]},"properties":{"secretariatName":"ALLIMADUGU","villageName":"ALLIMADUGU","sdtname":"BOGOLE","dtname":"SRI POTTI SRIRAMULU NELLORE","stname":"ANDHRA PRADESH","country":"India"}},{"type":"Feature","geometry":{"type":"Point","coordinates":[79.971022,14.812197]},"properties":{"secretariatName":"BITRAGUNTA","villageName":"BITRAGUNTA","sdtname":"BOGOLE","dtname":"SRI POTTI SRIRAMULU NELLORE","stname":"ANDHRA PRADESH","country":"India"}},{"type":"Feature","geometry":{"type":"Point","coordinates":[79.985007,14.758873]},"properties":{"secretariatName":"BOGOLE1","villageName":"BOGOLE1","sdtname":"BOGOLE","dtname":"SRI POTTI SRIRAMULU NELLORE","stname":"ANDHRA PRADESH","country":"India"}},{"type":"Feature","geometry":{"type":"Point","coordinates":[79.990025,14.75757]},"properties":{"secretariatName":"BOGOLE2","villageName":"BOGOLE2","sdtname":"BOGOLE","dtname":"SRI POTTI SRIRAMULU NELLORE","stname":"ANDHRA PRADESH","country":"India"}},{"type":"Feature","geometry":{"type":"Point","coordinates":[79.9735962,14.7578823]},"properties":{"secretariatName":"BOGOLE3","villageName":"BOGOLE3","sdtname":"BOGOLE","dtname":"SRI POTTI SRIRAMULU NELLORE","stname":"ANDHRA PRADESH","country":"India"}},{"type":"Feature","geometry":{"type":"Point","coordinates":[80.087031,14.75788]},"properties":{"secretariatName":"CRPALEM","villageName":"CRPALEM","sdtname":"BOGOLE","dtname":"SRI POTTI SRIRAMULU NELLORE","stname":"ANDHRA PRADESH","country":"India"}},{"type":"Feature","geometry":{"type":"Point","coordinates":[79.9125471,14.7573909]},"properties":{"secretariatName":"JAKKAPALLIGUDUR","villageName":"JAKKAPALLIGUDUR","sdtname":"BOGOLE","dtname":"SRI POTTI SRIRAMULU NELLORE","stname":"ANDHRA PRADESH","country":"India"}},{"type":"Feature","geometry":{"type":"Point","coordinates":[80.06783,14.80898]},"properties":{"secretariatName":"JUVVALDINNE","villageName":"JUVVALDINNE","sdtname":"BOGOLE","dtname":"SRI POTTI SRIRAMULU NELLORE","stname":"ANDHRA PRADESH","country":"India"}},{"type":"Feature","geometry":{"type":"Point","coordinates":[79.999133,14.778195]},"properties":{"secretariatName":"KOVURUPALLI","villageName":"KOVURUPALLI","sdtname":"BOGOLE","dtname":"SRI POTTI SRIRAMULU NELLORE","stname":"ANDHRA PRADESH","country":"India"}},{"type":"Feature","geometry":{"type":"Point","coordinates":[80.018928,14.806254]},"properties":{"secretariatName":"MUNGAMURU","villageName":"MUNGAMURU","sdtname":"BOGOLE","dtname":"SRI POTTI SRIRAMULU NELLORE","stname":"ANDHRA PRADESH","country":"India"}},{"type":"Feature","geometry":{"type":"Point","coordinates":[79.9417259,14.7566694]},"properties":{"secretariatName":"NAGULAVARAM","villageName":"NAGULAVARAM","sdtname":"BOGOLE","dtname":"SRI POTTI SRIRAMULU NELLORE","stname":"ANDHRA PRADESH","country":"India"}},{"type":"Feature","geometry":{"type":"Point","coordinates":[80.059795,14.780114]},"properties":{"secretariatName":"S.VPALEM","villageName":"S.VPALEM","sdtname":"BOGOLE","dtname":"SRI POTTI SRIRAMULU NELLORE","stname":"ANDHRA PRADESH","country":"India"}},{"type":"Feature","geometry":{"type":"Point","coordinates":[79.943167,14.801899]},"properties":{"secretariatName":"THALLURU","villageName":"THALLURU","sdtname":"BOGOLE","dtname":"SRI POTTI SRIRAMULU NELLORE","stname":"ANDHRA PRADESH","country":"India"}},{"type":"Feature","geometry":{"type":"Point","coordinates":[79.989676,14.766394]},"properties":{"secretariatName":"VISWANATHARAOPETA1","villageName":"VISWANATHARAOPETA1","sdtname":"BOGOLE","dtname":"SRI POTTI SRIRAMULU NELLORE","stname":"ANDHRA PRADESH","country":"India"}},{"type":"Feature","geometry":{"type":"Point","coordinates":[79.9883295,14.7716101]},"properties":{"secretariatName":"VISWANATHARAOPETA2","villageName":"VISWANATHARAOPETA2","sdtname":"BOGOLE","dtname":"SRI POTTI SRIRAMULU NELLORE","stname":"ANDHRA PRADESH","country":"India"}},{"type":"Feature","geometry":{"type":"Point","coordinates":[79.994621,14.832071]},"properties":{"secretariatName":"YENUGUVABI","villageName":"YENUGUVABI","sdtname":"BOGOLE","dtname":"SRI POTTI SRIRAMULU NELLORE","stname":"ANDHRA PRADESH","country":"India"}},{"type":"Feature","geometry":{"type":"Point","coordinates":[79.8830655,14.5435596]},"properties":{"secretariatName":"BUCHIREDDYPALEM1","villageName":"BUCHIREDDYPALEM1","sdtname":"BUCHIREDDYPALEM","dtname":"SRI POTTI SRIRAMULU NELLORE","stname":"ANDHRA PRADESH","country":"India"}},{"type":"Feature","geometry":{"type":"Point","coordinates":[79.883572,14.541881]},"properties":{"secretariatName":"BUCHIREDDYPALEM2","villageName":"BUCHIREDDYPALEM2","sdtname":"BUCHIREDDYPALEM","dtname":"SRI POTTI SRIRAMULU NELLORE","stname":"ANDHRA PRADESH","country":"India"}},{"type":"Feature","geometry":{"type":"Point","coordinates":[79.875527,14.539574]},"properties":{"secretariatName":"BUCHIREDDYPALEM3","villageName":"BUCHIREDDYPALEM3","sdtname":"BUCHIREDDYPALEM","dtname":"SRI POTTI SRIRAMULU NELLORE","stname":"ANDHRA PRADESH","country":"India"}},{"type":"Feature","geometry":{"type":"Point","coordinates":[79.876863,14.5342758]},"properties":{"secretariatName":"BUCHIREDDYPALEM4","villageName":"BUCHIREDDYPALEM4","sdtname":"BUCHIREDDYPALEM","dtname":"SRI POTTI SRIRAMULU NELLORE","stname":"ANDHRA PRADESH","country":"India"}},{"type":"Feature","geometry":{"type":"Point","coordinates":[79.8819345,14.5359788]},"properties":{"secretariatName":"BUCHIREDDYPALEM5","villageName":"BUCHIREDDYPALEM5","sdtname":"BUCHIREDDYPALEM","dtname":"SRI POTTI SRIRAMULU NELLORE","stname":"ANDHRA PRADESH","country":"India"}},{"type":"Feature","geometry":{"type":"Point","coordinates":[79.89234,14.51774]},"properties":{"secretariatName":"CHELLAYAPALEM","villageName":"CHELLAYAPALEM","sdtname":"BUCHIREDDYPALEM","dtname":"SRI POTTI SRIRAMULU NELLORE","stname":"ANDHRA PRADESH","country":"India"}},{"type":"Feature","geometry":{"type":"Point","coordinates":[79.930052,14.501869]},"properties":{"secretariatName":"DAMARAMADUGU1","villageName":"DAMARAMADUGU1","sdtname":"BUCHIREDDYPALEM","dtname":"SRI POTTI SRIRAMULU NELLORE","stname":"ANDHRA PRADESH","country":"India"}},{"type":"Feature","geometry":{"type":"Point","coordinates":[79.9301927,14.5022452]},"properties":{"secretariatName":"DAMARAMADUGU2","villageName":"DAMARAMADUGU2","sdtname":"BUCHIREDDYPALEM","dtname":"SRI POTTI SRIRAMULU NELLORE","stname":"ANDHRA PRADESH","country":"India"}},{"type":"Feature","geometry":{"type":"Point","coordinates":[79.8922941,14.5417148]},"properties":{"secretariatName":"ISAKAPALEM1","villageName":"ISAKAPALEM1","sdtname":"BUCHIREDDYPALEM","dtname":"SRI POTTI SRIRAMULU NELLORE","stname":"ANDHRA PRADESH","country":"India"}},{"type":"Feature","geometry":{"type":"Point","coordinates":[79.884542,14.534297]},"properties":{"secretariatName":"ISAKAPALEM2","villageName":"ISAKAPALEM2","sdtname":"BUCHIREDDYPALEM","dtname":"SRI POTTI SRIRAMULU NELLORE","stname":"ANDHRA PRADESH","country":"India"}},{"type":"Feature","geometry":{"type":"Point","coordinates":[79.894299,14.5485]},"properties":{"secretariatName":"ISAKAPALEM3","villageName":"ISAKAPALEM3","sdtname":"BUCHIREDDYPALEM","dtname":"SRI POTTI SRIRAMULU NELLORE","stname":"ANDHRA PRADESH","country":"India"}},{"type":"Feature","geometry":{"type":"Point","coordinates":[79.8913132,14.4806446]},"properties":{"secretariatName":"JONNAWADA","villageName":"JONNAWADA","sdtname":"BUCHIREDDYPALEM","dtname":"SRI POTTI SRIRAMULU NELLORE","stname":"ANDHRA PRADESH","country":"India"}},{"type":"Feature","geometry":{"type":"Point","coordinates":[79.9065423,14.4999054]},"properties":{"secretariatName":"KALAYAKAGOLLU","villageName":"KALAYAKAGOLLU","sdtname":"BUCHIREDDYPALEM","dtname":"SRI POTTI SRIRAMULU NELLORE","stname":"ANDHRA PRADESH","country":"India"}},{"type":"Feature","geometry":{"type":"Point","coordinates":[79.8852532,14.556423]},"properties":{"secretariatName":"KATTUBADIPALEM","villageName":"KATTUBADIPALEM","sdtname":"BUCHIREDDYPALEM","dtname":"SRI POTTI SRIRAMULU NELLORE","stname":"ANDHRA PRADESH","country":"India"}},{"type":"Feature","geometry":{"type":"Point","coordinates":[79.8634092,14.4933239]},"properties":{"secretariatName":"MINAGALLU","villageName":"MINAGALLU","sdtname":"BUCHIREDDYPALEM","dtname":"SRI POTTI SRIRAMULU NELLORE","stname":"ANDHRA PRADESH","country":"India"}},{"type":"Feature","geometry":{"type":"Point","coordinates":[79.8890888,14.6127592]},"properties":{"secretariatName":"MUNULAPUDI","villageName":"MUNULAPUDI","sdtname":"BUCHIREDDYPALEM","dtname":"SRI POTTI SRIRAMULU NELLORE","stname":"ANDHRA PRADESH","country":"India"}},{"type":"Feature","geometry":{"type":"Point","coordinates":[79.911938,14.536948]},"properties":{"secretariatName":"NAGAMAMBAPURAM","villageName":"NAGAMAMBAPURAM","sdtname":"BUCHIREDDYPALEM","dtname":"SRI POTTI SRIRAMULU NELLORE","stname":"ANDHRA PRADESH","country":"India"}},{"type":"Feature","geometry":{"type":"Point","coordinates":[79.8570307,14.524908]},"properties":{"secretariatName":"PANCHEDU","villageName":"PANCHEDU","sdtname":"BUCHIREDDYPALEM","dtname":"SRI POTTI SRIRAMULU NELLORE","stname":"ANDHRA PRADESH","country":"India"}},{"type":"Feature","geometry":{"type":"Point","coordinates":[79.888997,14.496346]},"properties":{"secretariatName":"PENUBALLE","villageName":"PENUBALLE","sdtname":"BUCHIREDDYPALEM","dtname":"SRI POTTI SRIRAMULU NELLORE","stname":"ANDHRA PRADESH","country":"India"}},{"type":"Feature","geometry":{"type":"Point","coordinates":[79.899594,14.528574]},"properties":{"secretariatName":"REBALA1","villageName":"REBALA1","sdtname":"BUCHIREDDYPALEM","dtname":"SRI POTTI SRIRAMULU NELLORE","stname":"ANDHRA PRADESH","country":"India"}},{"type":"Feature","geometry":{"type":"Point","coordinates":[79.899619,14.528602]},"properties":{"secretariatName":"REBALA2","villageName":"REBALA2","sdtname":"BUCHIREDDYPALEM","dtname":"SRI POTTI SRIRAMULU NELLORE","stname":"ANDHRA PRADESH","country":"India"}},{"type":"Feature","geometry":{"type":"Point","coordinates":[79.8712079,14.5576762]},"properties":{"secretariatName":"VAVVERU1","villageName":"VAVVERU1","sdtname":"BUCHIREDDYPALEM","dtname":"SRI POTTI SRIRAMULU NELLORE","stname":"ANDHRA PRADESH","country":"India"}},{"type":"Feature","geometry":{"type":"Point","coordinates":[79.8765991,14.5333896]},"properties":{"secretariatName":"VAVVERU2","villageName":"VAVVERU2","sdtname":"BUCHIREDDYPALEM","dtname":"SRI POTTI SRIRAMULU NELLORE","stname":"ANDHRA PRADESH","country":"India"}},{"type":"Feature","geometry":{"type":"Point","coordinates":[79.6022524,14.4435422]},"properties":{"secretariatName":"ADURUPALLI","villageName":"ADURUPALLI","sdtname":"CHEJERLA","dtname":"SRI POTTI SRIRAMULU NELLORE","stname":"ANDHRA PRADESH","country":"India"}},{"type":"Feature","geometry":{"type":"Point","coordinates":[79.5656724,14.5189745]},"properties":{"secretariatName":"CHEJERLA","villageName":"CHEJERLA","sdtname":"CHEJERLA","dtname":"SRI POTTI SRIRAMULU NELLORE","stname":"ANDHRA PRADESH","country":"India"}},{"type":"Feature","geometry":{"type":"Point","coordinates":[79.595889,14.466383]},"properties":{"secretariatName":"CHITTALURU","villageName":"CHITTALURU","sdtname":"CHEJERLA","dtname":"SRI POTTI SRIRAMULU NELLORE","stname":"ANDHRA PRADESH","country":"India"}},{"type":"Feature","geometry":{"type":"Point","coordinates":[79.486091,14.557002]},"properties":{"secretariatName":"KOTITHEERDHAM","villageName":"KOTITHEERDHAM","sdtname":"CHEJERLA","dtname":"SRI POTTI SRIRAMULU NELLORE","stname":"ANDHRA PRADESH","country":"India"}},{"type":"Feature","geometry":{"type":"Point","coordinates":[79.5560552,14.5242181]},"properties":{"secretariatName":"MADAPALLI","villageName":"MADAPALLI","sdtname":"CHEJERLA","dtname":"SRI POTTI SRIRAMULU NELLORE","stname":"ANDHRA PRADESH","country":"India"}},{"type":"Feature","geometry":{"type":"Point","coordinates":[79.69114,14.566428]},"properties":{"secretariatName":"MAMUDURU","villageName":"MAMUDURU","sdtname":"CHEJERLA","dtname":"SRI POTTI SRIRAMULU NELLORE","stname":"ANDHRA PRADESH","country":"India"}},{"type":"Feature","geometry":{"type":"Point","coordinates":[79.5208236,14.4940677]},"properties":{"secretariatName":"NAGULAVELLATURU","villageName":"NAGULAVELLATURU","sdtname":"CHEJERLA","dtname":"SRI POTTI SRIRAMULU NELLORE","stname":"ANDHRA PRADESH","country":"India"}},{"type":"Feature","geometry":{"type":"Point","coordinates":[79.595766,14.421885]},"properties":{"secretariatName":"NERNURU","villageName":"NERNURU","sdtname":"CHEJERLA","dtname":"SRI POTTI SRIRAMULU NELLORE","stname":"ANDHRA PRADESH","country":"India"}},{"type":"Feature","geometry":{"type":"Point","coordinates":[79.6178639,14.5056031]},"properties":{"secretariatName":"PADERU","villageName":"PADERU","sdtname":"CHEJERLA","dtname":"SRI POTTI SRIRAMULU NELLORE","stname":"ANDHRA PRADESH","country":"India"}},{"type":"Feature","geometry":{"type":"Point","coordinates":[79.647939,14.52268]},"properties":{"secretariatName":"PATHAPADU","villageName":"PATHAPADU","sdtname":"CHEJERLA","dtname":"SRI POTTI SRIRAMULU NELLORE","stname":"ANDHRA PRADESH","country":"India"}},{"type":"Feature","geometry":{"type":"Point","coordinates":[79.627649,14.544411]},"properties":{"secretariatName":"PERUMALLAPADU","villageName":"PERUMALLAPADU","sdtname":"CHEJERLA","dtname":"SRI POTTI SRIRAMULU NELLORE","stname":"ANDHRA PRADESH","country":"India"}},{"type":"Feature","geometry":{"type":"Point","coordinates":[79.66606,14.54287]},"properties":{"secretariatName":"THURPUPALLIH/OPELLERU","villageName":"THURPUPALLIH/OPELLERU","sdtname":"CHEJERLA","dtname":"SRI POTTI SRIRAMULU NELLORE","stname":"ANDHRA PRADESH","country":"India"}},{"type":"Feature","geometry":{"type":"Point","coordinates":[79.622442,14.47226]},"properties":{"secretariatName":"VAVILERU","villageName":"VAVILERU","sdtname":"CHEJERLA","dtname":"SRI POTTI SRIRAMULU NELLORE","stname":"ANDHRA PRADESH","country":"India"}},{"type":"Feature","geometry":{"type":"Point","coordinates":[79.5144988,14.5261191]},"properties":{"secretariatName":"YANAMADALA","villageName":"YANAMADALA","sdtname":"CHEJERLA","dtname":"SRI POTTI SRIRAMULU NELLORE","stname":"ANDHRA PRADESH","country":"India"}},{"type":"Feature","geometry":{"type":"Point","coordinates":[79.6480998,14.4371363]},"properties":{"secretariatName":"YETURU","villageName":"YETURU","sdtname":"CHEJERLA","dtname":"SRI POTTI SRIRAMULU NELLORE","stname":"ANDHRA PRADESH","country":"India"}},{"type":"Feature","geometry":{"type":"Point","coordinates":[79.860333,14.739541]},"properties":{"secretariatName":"BODAGUDIPADU","villageName":"BODAGUDIPADU","sdtname":"DAGADARTHI","dtname":"SRI POTTI SRIRAMULU NELLORE","stname":"ANDHRA PRADESH","country":"India"}},{"type":"Feature","geometry":{"type":"Point","coordinates":[79.8795582,14.6667421]},"properties":{"secretariatName":"CHENNURU","villageName":"CHENNURU","sdtname":"DAGADARTHI","dtname":"SRI POTTI SRIRAMULU NELLORE","stname":"ANDHRA PRADESH","country":"India"}},{"type":"Feature","geometry":{"type":"Point","coordinates":[79.922402,14.668257]},"properties":{"secretariatName":"DAGADARTHI","villageName":"DAGADARTHI","sdtname":"DAGADARTHI","dtname":"SRI POTTI SRIRAMULU NELLORE","stname":"ANDHRA PRADESH","country":"India"}},{"type":"Feature","geometry":{"type":"Point","coordinates":[79.797388,14.698331]},"properties":{"secretariatName":"DUNDIGUM","villageName":"DUNDIGUM","sdtname":"DAGADARTHI","dtname":"SRI POTTI SRIRAMULU NELLORE","stname":"ANDHRA PRADESH","country":"India"}},{"type":"Feature","geometry":{"type":"Point","coordinates":[79.883761,14.710055]},"properties":{"secretariatName":"KATRAYAPADU","villageName":"KATRAYAPADU","sdtname":"DAGADARTHI","dtname":"SRI POTTI SRIRAMULU NELLORE","stname":"ANDHRA PRADESH","country":"India"}},{"type":"Feature","geometry":{"type":"Point","coordinates":[79.992859,14.690666]},"properties":{"secretariatName":"KKGUNTA","villageName":"KKGUNTA","sdtname":"DAGADARTHI","dtname":"SRI POTTI SRIRAMULU NELLORE","stname":"ANDHRA PRADESH","country":"India"}},{"type":"Feature","geometry":{"type":"Point","coordinates":[79.840468,14.708319]},"properties":{"secretariatName":"MANUBOLUPADU","villageName":"MANUBOLUPADU","sdtname":"DAGADARTHI","dtname":"SRI POTTI SRIRAMULU NELLORE","stname":"ANDHRA PRADESH","country":"India"}},{"type":"Feature","geometry":{"type":"Point","coordinates":[79.935307,14.604564]},"properties":{"secretariatName":"SRIRAMAPURAM(PEDAPUTHEDU)","villageName":"SRIRAMAPURAM(PEDAPUTHEDU)","sdtname":"DAGADARTHI","dtname":"SRI POTTI SRIRAMULU NELLORE","stname":"ANDHRA PRADESH","country":"India"}},{"type":"Feature","geometry":{"type":"Point","coordinates":[79.945126,14.648583]},"properties":{"secretariatName":"TADAKALUR","villageName":"TADAKALUR","sdtname":"DAGADARTHI","dtname":"SRI POTTI SRIRAMULU NELLORE","stname":"ANDHRA PRADESH","country":"India"}},{"type":"Feature","geometry":{"type":"Point","coordinates":[79.909519,14.637085]},"properties":{"secretariatName":"THURIMERLA","villageName":"THURIMERLA","sdtname":"DAGADARTHI","dtname":"SRI POTTI SRIRAMULU NELLORE","stname":"ANDHRA PRADESH","country":"India"}},{"type":"Feature","geometry":{"type":"Point","coordinates":[80.000117,14.724863]},"properties":{"secretariatName":"ULAVAPALLA","villageName":"ULAVAPALLA","sdtname":"DAGADARTHI","dtname":"SRI POTTI SRIRAMULU NELLORE","stname":"ANDHRA PRADESH","country":"India"}},{"type":"Feature","geometry":{"type":"Point","coordinates":[79.911156,14.692461]},"properties":{"secretariatName":"VELUPODU","villageName":"VELUPODU","sdtname":"DAGADARTHI","dtname":"SRI POTTI SRIRAMULU NELLORE","stname":"ANDHRA PRADESH","country":"India"}},{"type":"Feature","geometry":{"type":"Point","coordinates":[null,null]},"properties":{"secretariatName":"","villageName":"","sdtname":"","dtname":"SRI POTTI SRIRAMULU NELLORE","stname":"ANDHRA PRADESH","country":"India"}},{"type":"Feature","geometry":{"type":"Point","coordinates":[null,null]},"properties":{"secretariatName":"","villageName":"","sdtname":"","dtname":"SRI POTTI SRIRAMULU NELLORE","stname":"ANDHRA PRADESH","country":"India"}},{"type":"Feature","geometry":{"type":"Point","coordinates":[79.387449,14.879163]},"properties":{"secretariatName":"BODUVARIPALLI","villageName":"BODUVARIPALLI","sdtname":"DUTTALUR","dtname":"SRI POTTI SRIRAMULU NELLORE","stname":"ANDHRA PRADESH","country":"India"}},{"type":"Feature","geometry":{"type":"Point","coordinates":[79.461791,14.825373]},"properties":{"secretariatName":"BRAHMESWARAM","villageName":"BRAHMESWARAM","sdtname":"DUTTALUR","dtname":"SRI POTTI SRIRAMULU NELLORE","stname":"ANDHRA PRADESH","country":"India"}},{"type":"Feature","geometry":{"type":"Point","coordinates":[79.448753,14.770391]},"properties":{"secretariatName":"BYRAVARAM","villageName":"BYRAVARAM","sdtname":"DUTTALUR","dtname":"SRI POTTI SRIRAMULU NELLORE","stname":"ANDHRA PRADESH","country":"India"}},{"type":"Feature","geometry":{"type":"Point","coordinates":[79.405673,14.855059]},"properties":{"secretariatName":"DUTTALURU1","villageName":"DUTTALURU1","sdtname":"DUTTALUR","dtname":"SRI POTTI SRIRAMULU NELLORE","stname":"ANDHRA PRADESH","country":"India"}},{"type":"Feature","geometry":{"type":"Point","coordinates":[79.420333,14.859391]},"properties":{"secretariatName":"DUTTALURU2","villageName":"DUTTALURU2","sdtname":"DUTTALUR","dtname":"SRI POTTI SRIRAMULU NELLORE","stname":"ANDHRA PRADESH","country":"India"}},{"type":"Feature","geometry":{"type":"Point","coordinates":[79.476991,14.921928]},"properties":{"secretariatName":"KOTHAPETA","villageName":"KOTHAPETA","sdtname":"DUTTALUR","dtname":"SRI POTTI SRIRAMULU NELLORE","stname":"ANDHRA PRADESH","country":"India"}},{"type":"Feature","geometry":{"type":"Point","coordinates":[79.34786,14.799356]},"properties":{"secretariatName":"NANDIPADU","villageName":"NANDIPADU","sdtname":"DUTTALUR","dtname":"SRI POTTI SRIRAMULU NELLORE","stname":"ANDHRA PRADESH","country":"India"}},{"type":"Feature","geometry":{"type":"Point","coordinates":[79.428545,14.90059]},"properties":{"secretariatName":"NARRAWADA","villageName":"NARRAWADA","sdtname":"DUTTALUR","dtname":"SRI POTTI SRIRAMULU NELLORE","stname":"ANDHRA PRADESH","country":"India"}},{"type":"Feature","geometry":{"type":"Point","coordinates":[79.3674951,14.8607487]},"properties":{"secretariatName":"SOMALAREGADA","villageName":"SOMALAREGADA","sdtname":"DUTTALUR","dtname":"SRI POTTI SRIRAMULU NELLORE","stname":"ANDHRA PRADESH","country":"India"}},{"type":"Feature","geometry":{"type":"Point","coordinates":[79.42383,14.915467]},"properties":{"secretariatName":"TEDDUPADU","villageName":"TEDDUPADU","sdtname":"DUTTALUR","dtname":"SRI POTTI SRIRAMULU NELLORE","stname":"ANDHRA PRADESH","country":"India"}},{"type":"Feature","geometry":{"type":"Point","coordinates":[79.3444116,14.8326272]},"properties":{"secretariatName":"VENKATAMPETA","villageName":"VENKATAMPETA","sdtname":"DUTTALUR","dtname":"SRI POTTI SRIRAMULU NELLORE","stname":"ANDHRA PRADESH","country":"India"}},{"type":"Feature","geometry":{"type":"Point","coordinates":[79.902022,15.01164]},"properties":{"secretariatName":"AMMAVARTIPALEM","villageName":"AMMAVARTIPALEM","sdtname":"GUDLURU","dtname":"SRI POTTI SRIRAMULU NELLORE","stname":"ANDHRA PRADESH","country":"India"}},{"type":"Feature","geometry":{"type":"Point","coordinates":[79.867233,15.07665]},"properties":{"secretariatName":"BASIREDDYPLAEM","villageName":"BASIREDDYPLAEM","sdtname":"GUDLURU","dtname":"SRI POTTI SRIRAMULU NELLORE","stname":"ANDHRA PRADESH","country":"India"}},{"type":"Feature","geometry":{"type":"Point","coordinates":[80.009377,15.001887]},"properties":{"secretariatName":"CHEVURU","villageName":"CHEVURU","sdtname":"GUDLURU","dtname":"SRI POTTI SRIRAMULU NELLORE","stname":"ANDHRA PRADESH","country":"India"}},{"type":"Feature","geometry":{"type":"Point","coordinates":[79.9264843,15.0726257]},"properties":{"secretariatName":"CHIMIDITHIPADU","villageName":"CHIMIDITHIPADU","sdtname":"GUDLURU","dtname":"SRI POTTI SRIRAMULU NELLORE","stname":"ANDHRA PRADESH","country":"India"}},{"type":"Feature","geometry":{"type":"Point","coordinates":[79.85808,15.02072]},"properties":{"secretariatName":"CHINALATRAPI","villageName":"CHINALATRAPI","sdtname":"GUDLURU","dtname":"SRI POTTI SRIRAMULU NELLORE","stname":"ANDHRA PRADESH","country":"India"}},{"type":"Feature","geometry":{"type":"Point","coordinates":[79.8473556,15.0884984]},"properties":{"secretariatName":"DARAKANIPADU","villageName":"DARAKANIPADU","sdtname":"GUDLURU","dtname":"SRI POTTI SRIRAMULU NELLORE","stname":"ANDHRA PRADESH","country":"India"}},{"type":"Feature","geometry":{"type":"Point","coordinates":[80.039424,15.032782]},"properties":{"secretariatName":"ELURUPADU","villageName":"ELURUPADU","sdtname":"GUDLURU","dtname":"SRI POTTI SRIRAMULU NELLORE","stname":"ANDHRA PRADESH","country":"India"}},{"type":"Feature","geometry":{"type":"Point","coordinates":[79.9011303,15.0743932]},"properties":{"secretariatName":"GUDLURU1","villageName":"GUDLURU1","sdtname":"GUDLURU","dtname":"SRI POTTI SRIRAMULU NELLORE","stname":"ANDHRA PRADESH","country":"India"}},{"type":"Feature","geometry":{"type":"Point","coordinates":[79.9013572,15.0760719]},"properties":{"secretariatName":"GUDLURU2","villageName":"GUDLURU2","sdtname":"GUDLURU","dtname":"SRI POTTI SRIRAMULU NELLORE","stname":"ANDHRA PRADESH","country":"India"}},{"type":"Feature","geometry":{"type":"Point","coordinates":[79.8809854,15.1144953]},"properties":{"secretariatName":"GUNDLAPALEM","villageName":"GUNDLAPALEM","sdtname":"GUDLURU","dtname":"SRI POTTI SRIRAMULU NELLORE","stname":"ANDHRA PRADESH","country":"India"}},{"type":"Feature","geometry":{"type":"Point","coordinates":[80.004436,15.053019]},"properties":{"secretariatName":"MOCHERLA","villageName":"MOCHERLA","sdtname":"GUDLURU","dtname":"SRI POTTI SRIRAMULU NELLORE","stname":"ANDHRA PRADESH","country":"India"}},{"type":"Feature","geometry":{"type":"Point","coordinates":[79.846336,14.993185]},"properties":{"secretariatName":"NAYUDUPALEM","villageName":"NAYUDUPALEM","sdtname":"GUDLURU","dtname":"SRI POTTI SRIRAMULU NELLORE","stname":"ANDHRA PRADESH","country":"India"}},{"type":"Feature","geometry":{"type":"Point","coordinates":[79.8680251,15.1263681]},"properties":{"secretariatName":"PARAKONDAPADU","villageName":"PARAKONDAPADU","sdtname":"GUDLURU","dtname":"SRI POTTI SRIRAMULU NELLORE","stname":"ANDHRA PRADESH","country":"India"}},{"type":"Feature","geometry":{"type":"Point","coordinates":[79.950175,15.050724]},"properties":{"secretariatName":"POTLURU","villageName":"POTLURU","sdtname":"GUDLURU","dtname":"SRI POTTI SRIRAMULU NELLORE","stname":"ANDHRA PRADESH","country":"India"}},{"type":"Feature","geometry":{"type":"Point","coordinates":[79.8293077,15.0761872]},"properties":{"secretariatName":"PURETIPALLI","villageName":"PURETIPALLI","sdtname":"GUDLURU","dtname":"SRI POTTI SRIRAMULU NELLORE","stname":"ANDHRA PRADESH","country":"India"}},{"type":"Feature","geometry":{"type":"Point","coordinates":[80.023571,15.021515]},"properties":{"secretariatName":"RAVURU","villageName":"RAVURU","sdtname":"GUDLURU","dtname":"SRI POTTI SRIRAMULU NELLORE","stname":"ANDHRA PRADESH","country":"India"}},{"type":"Feature","geometry":{"type":"Point","coordinates":[80.0652711,14.4678078]},"properties":{"secretariatName":"DEVISPET","villageName":"DEVISPET","sdtname":"INDUKURPET","dtname":"SRI POTTI SRIRAMULU NELLORE","stname":"ANDHRA PRADESH","country":"India"}},{"type":"Feature","geometry":{"type":"Point","coordinates":[80.1525563,14.5236198]},"properties":{"secretariatName":"GANGAPATNAM1","villageName":"GANGAPATNAM1","sdtname":"INDUKURPET","dtname":"SRI POTTI SRIRAMULU NELLORE","stname":"ANDHRA PRADESH","country":"India"}},{"type":"Feature","geometry":{"type":"Point","coordinates":[80.1522946,14.523485]},"properties":{"secretariatName":"GANGAPATNAM2","villageName":"GANGAPATNAM2","sdtname":"INDUKURPET","dtname":"SRI POTTI SRIRAMULU NELLORE","stname":"ANDHRA PRADESH","country":"India"}},{"type":"Feature","geometry":{"type":"Point","coordinates":[80.1072,14.4726662]},"properties":{"secretariatName":"INDUKURPETBIT-I1","villageName":"INDUKURPETBIT-I1","sdtname":"INDUKURPET","dtname":"SRI POTTI SRIRAMULU NELLORE","stname":"ANDHRA PRADESH","country":"India"}},{"type":"Feature","geometry":{"type":"Point","coordinates":[80.1075981,14.4728179]},"properties":{"secretariatName":"INDUKURPETBIT-I2","villageName":"INDUKURPETBIT-I2","sdtname":"INDUKURPET","dtname":"SRI POTTI SRIRAMULU NELLORE","stname":"ANDHRA PRADESH","country":"India"}},{"type":"Feature","geometry":{"type":"Point","coordinates":[80.0897352,14.4693814]},"properties":{"secretariatName":"INDUKURPETBIT-II1","villageName":"INDUKURPETBIT-II1","sdtname":"INDUKURPET","dtname":"SRI POTTI SRIRAMULU NELLORE","stname":"ANDHRA PRADESH","country":"India"}},{"type":"Feature","geometry":{"type":"Point","coordinates":[80.085316,14.46913]},"properties":{"secretariatName":"INDUKURPETBIT-II2","villageName":"INDUKURPETBIT-II2","sdtname":"INDUKURPET","dtname":"SRI POTTI SRIRAMULU NELLORE","stname":"ANDHRA PRADESH","country":"India"}},{"type":"Feature","geometry":{"type":"Point","coordinates":[80.1263547,14.5104149]},"properties":{"secretariatName":"KOMARIKA","villageName":"KOMARIKA","sdtname":"INDUKURPET","dtname":"SRI POTTI SRIRAMULU NELLORE","stname":"ANDHRA PRADESH","country":"India"}},{"type":"Feature","geometry":{"type":"Point","coordinates":[80.157332,14.477874]},"properties":{"secretariatName":"KORUTURU","villageName":"KORUTURU","sdtname":"INDUKURPET","dtname":"SRI POTTI SRIRAMULU NELLORE","stname":"ANDHRA PRADESH","country":"India"}},{"type":"Feature","geometry":{"type":"Point","coordinates":[80.150537,14.560515]},"properties":{"secretariatName":"KUDITHIPALEM","villageName":"KUDITHIPALEM","sdtname":"INDUKURPET","dtname":"SRI POTTI SRIRAMULU NELLORE","stname":"ANDHRA PRADESH","country":"India"}},{"type":"Feature","geometry":{"type":"Point","coordinates":[80.087306,14.504396]},"properties":{"secretariatName":"LEBURBIT-I","villageName":"LEBURBIT-I","sdtname":"INDUKURPET","dtname":"SRI POTTI SRIRAMULU NELLORE","stname":"ANDHRA PRADESH","country":"India"}},{"type":"Feature","geometry":{"type":"Point","coordinates":[80.0765888,14.4790706]},"properties":{"secretariatName":"LEBURBIT-II","villageName":"LEBURBIT-II","sdtname":"INDUKURPET","dtname":"SRI POTTI SRIRAMULU NELLORE","stname":"ANDHRA PRADESH","country":"India"}},{"type":"Feature","geometry":{"type":"Point","coordinates":[80.11958,14.53835]},"properties":{"secretariatName":"MUDIVARTHIPALEM","villageName":"MUDIVARTHIPALEM","sdtname":"INDUKURPET","dtname":"SRI POTTI SRIRAMULU NELLORE","stname":"ANDHRA PRADESH","country":"India"}},{"type":"Feature","geometry":{"type":"Point","coordinates":[80.1653597,14.5098374]},"properties":{"secretariatName":"MYPADU1","villageName":"MYPADU1","sdtname":"INDUKURPET","dtname":"SRI POTTI SRIRAMULU NELLORE","stname":"ANDHRA PRADESH","country":"India"}},{"type":"Feature","geometry":{"type":"Point","coordinates":[80.1621713,14.5068865]},"properties":{"secretariatName":"MYPADU2","villageName":"MYPADU2","sdtname":"INDUKURPET","dtname":"SRI POTTI SRIRAMULU NELLORE","stname":"ANDHRA PRADESH","country":"India"}},{"type":"Feature","geometry":{"type":"Point","coordinates":[80.0532358,14.5100259]},"properties":{"secretariatName":"PALLIPADU","villageName":"PALLIPADU","sdtname":"INDUKURPET","dtname":"SRI POTTI SRIRAMULU NELLORE","stname":"ANDHRA PRADESH","country":"India"}},{"type":"Feature","geometry":{"type":"Point","coordinates":[80.1010733,14.499094]},"properties":{"secretariatName":"PUNUUR","villageName":"PUNUUR","sdtname":"INDUKURPET","dtname":"SRI POTTI SRIRAMULU NELLORE","stname":"ANDHRA PRADESH","country":"India"}},{"type":"Feature","geometry":{"type":"Point","coordinates":[80.146323,14.482587]},"properties":{"secretariatName":"SOMARAJUPALLI","villageName":"SOMARAJUPALLI","sdtname":"INDUKURPET","dtname":"SRI POTTI SRIRAMULU NELLORE","stname":"ANDHRA PRADESH","country":"India"}},{"type":"Feature","geometry":{"type":"Point","coordinates":[79.8476511,14.8771779]},"properties":{"secretariatName":"ANNAVARAM","villageName":"ANNAVARAM","sdtname":"JALADANKI","dtname":"SRI POTTI SRIRAMULU NELLORE","stname":"ANDHRA PRADESH","country":"India"}},{"type":"Feature","geometry":{"type":"Point","coordinates":[79.897646,14.836668]},"properties":{"secretariatName":"BRAHMANAKRAKA1","villageName":"BRAHMANAKRAKA1","sdtname":"JALADANKI","dtname":"SRI POTTI SRIRAMULU NELLORE","stname":"ANDHRA PRADESH","country":"India"}},{"type":"Feature","geometry":{"type":"Point","coordinates":[79.893526,14.856066]},"properties":{"secretariatName":"BRAHMANAKRAKA2","villageName":"BRAHMANAKRAKA2","sdtname":"JALADANKI","dtname":"SRI POTTI SRIRAMULU NELLORE","stname":"ANDHRA PRADESH","country":"India"}},{"type":"Feature","geometry":{"type":"Point","coordinates":[79.907615,14.798802]},"properties":{"secretariatName":"CHAMADALA","villageName":"CHAMADALA","sdtname":"JALADANKI","dtname":"SRI POTTI SRIRAMULU NELLORE","stname":"ANDHRA PRADESH","country":"India"}},{"type":"Feature","geometry":{"type":"Point","coordinates":[79.843459,14.847463]},"properties":{"secretariatName":"CHINNAKRAKA","villageName":"CHINNAKRAKA","sdtname":"JALADANKI","dtname":"SRI POTTI SRIRAMULU NELLORE","stname":"ANDHRA PRADESH","country":"India"}},{"type":"Feature","geometry":{"type":"Point","coordinates":[79.823011,14.953746]},"properties":{"secretariatName":"CHODAVARAM","villageName":"CHODAVARAM","sdtname":"JALADANKI","dtname":"SRI POTTI SRIRAMULU NELLORE","stname":"ANDHRA PRADESH","country":"India"}},{"type":"Feature","geometry":{"type":"Point","coordinates":[79.864075,14.907238]},"properties":{"secretariatName":"GATTUPALLI","villageName":"GATTUPALLI","sdtname":"JALADANKI","dtname":"SRI POTTI SRIRAMULU NELLORE","stname":"ANDHRA PRADESH","country":"India"}},{"type":"Feature","geometry":{"type":"Point","coordinates":[79.911518,14.881759]},"properties":{"secretariatName":"JALADANKI1","villageName":"JALADANKI1","sdtname":"JALADANKI","dtname":"SRI POTTI SRIRAMULU NELLORE","stname":"ANDHRA PRADESH","country":"India"}},{"type":"Feature","geometry":{"type":"Point","coordinates":[79.911501,14.881978]},"properties":{"secretariatName":"JALADANKI2","villageName":"JALADANKI2","sdtname":"JALADANKI","dtname":"SRI POTTI SRIRAMULU NELLORE","stname":"ANDHRA PRADESH","country":"India"}},{"type":"Feature","geometry":{"type":"Point","coordinates":[79.9344799,14.9046987]},"properties":{"secretariatName":"JAMMALAPALEM","villageName":"JAMMALAPALEM","sdtname":"JALADANKI","dtname":"SRI POTTI SRIRAMULU NELLORE","stname":"ANDHRA PRADESH","country":"India"}},{"type":"Feature","geometry":{"type":"Point","coordinates":[79.92289,14.820213]},"properties":{"secretariatName":"KAMMAVARIPALEM","villageName":"KAMMAVARIPALEM","sdtname":"JALADANKI","dtname":"SRI POTTI SRIRAMULU NELLORE","stname":"ANDHRA PRADESH","country":"India"}},{"type":"Feature","geometry":{"type":"Point","coordinates":[79.7882694,14.9022542]},"properties":{"secretariatName":"KESAVARAM","villageName":"KESAVARAM","sdtname":"JALADANKI","dtname":"SRI POTTI SRIRAMULU NELLORE","stname":"ANDHRA PRADESH","country":"India"}},{"type":"Feature","geometry":{"type":"Point","coordinates":[79.856465,14.7907183]},"properties":{"secretariatName":"SOMAVARAPPADU","villageName":"SOMAVARAPPADU","sdtname":"JALADANKI","dtname":"SRI POTTI SRIRAMULU NELLORE","stname":"ANDHRA PRADESH","country":"India"}},{"type":"Feature","geometry":{"type":"Point","coordinates":[79.7859042,14.7692951]},"properties":{"secretariatName":"ANANTHAPURAM","villageName":"ANANTHAPURAM","sdtname":"KALIGIRI","dtname":"SRI POTTI SRIRAMULU NELLORE","stname":"ANDHRA PRADESH","country":"India"}},{"type":"Feature","geometry":{"type":"Point","coordinates":[79.683745,14.910423]},"properties":{"secretariatName":"CHINAANNALURU","villageName":"CHINAANNALURU","sdtname":"KALIGIRI","dtname":"SRI POTTI SRIRAMULU NELLORE","stname":"ANDHRA PRADESH","country":"India"}},{"type":"Feature","geometry":{"type":"Point","coordinates":[79.829093,14.758478]},"properties":{"secretariatName":"EASTGUDLADONA","villageName":"EASTGUDLADONA","sdtname":"KALIGIRI","dtname":"SRI POTTI SRIRAMULU NELLORE","stname":"ANDHRA PRADESH","country":"India"}},{"type":"Feature","geometry":{"type":"Point","coordinates":[79.613795,14.87749]},"properties":{"secretariatName":"GANGIREDDYPALEM","villageName":"GANGIREDDYPALEM","sdtname":"KALIGIRI","dtname":"SRI POTTI SRIRAMULU NELLORE","stname":"ANDHRA PRADESH","country":"India"}},{"type":"Feature","geometry":{"type":"Point","coordinates":[79.696705,14.827827]},"properties":{"secretariatName":"KALIGIRI1","villageName":"KALIGIRI1","sdtname":"KALIGIRI","dtname":"SRI POTTI SRIRAMULU NELLORE","stname":"ANDHRA PRADESH","country":"India"}},{"type":"Feature","geometry":{"type":"Point","coordinates":[79.696705,14.827827]},"properties":{"secretariatName":"KALIGIRI2","villageName":"KALIGIRI2","sdtname":"KALIGIRI","dtname":"SRI POTTI SRIRAMULU NELLORE","stname":"ANDHRA PRADESH","country":"India"}},{"type":"Feature","geometry":{"type":"Point","coordinates":[79.768035,14.867365]},"properties":{"secretariatName":"KRAKUTURU","villageName":"KRAKUTURU","sdtname":"KALIGIRI","dtname":"SRI POTTI SRIRAMULU NELLORE","stname":"ANDHRA PRADESH","country":"India"}},{"type":"Feature","geometry":{"type":"Point","coordinates":[79.671861,14.880149]},"properties":{"secretariatName":"KRISHNAREDDYPALEM","villageName":"KRISHNAREDDYPALEM","sdtname":"KALIGIRI","dtname":"SRI POTTI SRIRAMULU NELLORE","stname":"ANDHRA PRADESH","country":"India"}},{"type":"Feature","geometry":{"type":"Point","coordinates":[79.7963698,14.8022897]},"properties":{"secretariatName":"LAKSHMIPURAM","villageName":"LAKSHMIPURAM","sdtname":"KALIGIRI","dtname":"SRI POTTI SRIRAMULU NELLORE","stname":"ANDHRA PRADESH","country":"India"}},{"type":"Feature","geometry":{"type":"Point","coordinates":[79.658068,14.818653]},"properties":{"secretariatName":"NAGASAMUDRAM","villageName":"NAGASAMUDRAM","sdtname":"KALIGIRI","dtname":"SRI POTTI SRIRAMULU NELLORE","stname":"ANDHRA PRADESH","country":"India"}},{"type":"Feature","geometry":{"type":"Point","coordinates":[79.7771454,14.8347125]},"properties":{"secretariatName":"PEDAKONDURU","villageName":"PEDAKONDURU","sdtname":"KALIGIRI","dtname":"SRI POTTI SRIRAMULU NELLORE","stname":"ANDHRA PRADESH","country":"India"}},{"type":"Feature","geometry":{"type":"Point","coordinates":[79.735375,14.827767]},"properties":{"secretariatName":"POLAMPADU","villageName":"POLAMPADU","sdtname":"KALIGIRI","dtname":"SRI POTTI SRIRAMULU NELLORE","stname":"ANDHRA PRADESH","country":"India"}},{"type":"Feature","geometry":{"type":"Point","coordinates":[79.6478312,14.9083633]},"properties":{"secretariatName":"TELLAPADU","villageName":"TELLAPADU","sdtname":"KALIGIRI","dtname":"SRI POTTI SRIRAMULU NELLORE","stname":"ANDHRA PRADESH","country":"India"}},{"type":"Feature","geometry":{"type":"Point","coordinates":[79.723322,14.785212]},"properties":{"secretariatName":"VELAGAPADU","villageName":"VELAGAPADU","sdtname":"KALIGIRI","dtname":"SRI POTTI SRIRAMULU NELLORE","stname":"ANDHRA PRADESH","country":"India"}},{"type":"Feature","geometry":{"type":"Point","coordinates":[79.3890292,14.5148885]},"properties":{"secretariatName":"BADDEVOLU","villageName":"BADDEVOLU","sdtname":"KALUVOYA","dtname":"SRI POTTI SRIRAMULU NELLORE","stname":"ANDHRA PRADESH","country":"India"}},{"type":"Feature","geometry":{"type":"Point","coordinates":[79.4847856,14.4536875]},"properties":{"secretariatName":"CHEEPINAPI","villageName":"CHEEPINAPI","sdtname":"KALUVOYA","dtname":"SRI POTTI SRIRAMULU NELLORE","stname":"ANDHRA PRADESH","country":"India"}},{"type":"Feature","geometry":{"type":"Point","coordinates":[79.553471,14.475801]},"properties":{"secretariatName":"CHINAGOPAVARAM","villageName":"CHINAGOPAVARAM","sdtname":"KALUVOYA","dtname":"SRI POTTI SRIRAMULU NELLORE","stname":"ANDHRA PRADESH","country":"India"}},{"type":"Feature","geometry":{"type":"Point","coordinates":[79.5731624,14.409843]},"properties":{"secretariatName":"DACHURU","villageName":"DACHURU","sdtname":"KALUVOYA","dtname":"SRI POTTI SRIRAMULU NELLORE","stname":"ANDHRA PRADESH","country":"India"}},{"type":"Feature","geometry":{"type":"Point","coordinates":[79.4124539,14.5115555]},"properties":{"secretariatName":"KALUVOYA1","villageName":"KALUVOYA1","sdtname":"KALUVOYA","dtname":"SRI POTTI SRIRAMULU NELLORE","stname":"ANDHRA PRADESH","country":"India"}},{"type":"Feature","geometry":{"type":"Point","coordinates":[79.4160246,14.5111147]},"properties":{"secretariatName":"KALUVOYA2","villageName":"KALUVOYA2","sdtname":"KALUVOYA","dtname":"SRI POTTI SRIRAMULU NELLORE","stname":"ANDHRA PRADESH","country":"India"}},{"type":"Feature","geometry":{"type":"Point","coordinates":[79.4209959,14.5115785]},"properties":{"secretariatName":"KALUVOYA3","villageName":"KALUVOYA3","sdtname":"KALUVOYA","dtname":"SRI POTTI SRIRAMULU NELLORE","stname":"ANDHRA PRADESH","country":"India"}},{"type":"Feature","geometry":{"type":"Point","coordinates":[79.53755,14.44366]},"properties":{"secretariatName":"KANUPURUPALLI","villageName":"KANUPURUPALLI","sdtname":"KALUVOYA","dtname":"SRI POTTI SRIRAMULU NELLORE","stname":"ANDHRA PRADESH","country":"India"}},{"type":"Feature","geometry":{"type":"Point","coordinates":[79.525532,14.435303]},"properties":{"secretariatName":"KESAMANENIPALLI","villageName":"KESAMANENIPALLI","sdtname":"KALUVOYA","dtname":"SRI POTTI SRIRAMULU NELLORE","stname":"ANDHRA PRADESH","country":"India"}},{"type":"Feature","geometry":{"type":"Point","coordinates":[79.3663829,14.4906581]},"properties":{"secretariatName":"KULLURU1","villageName":"KULLURU1","sdtname":"KALUVOYA","dtname":"SRI POTTI SRIRAMULU NELLORE","stname":"ANDHRA PRADESH","country":"India"}},{"type":"Feature","geometry":{"type":"Point","coordinates":[79.3745986,14.4996279]},"properties":{"secretariatName":"KULLURU2","villageName":"KULLURU2","sdtname":"KALUVOYA","dtname":"SRI POTTI SRIRAMULU NELLORE","stname":"ANDHRA PRADESH","country":"India"}},{"type":"Feature","geometry":{"type":"Point","coordinates":[79.3769521,14.4677313]},"properties":{"secretariatName":"MADANNAGARIPALLI","villageName":"MADANNAGARIPALLI","sdtname":"KALUVOYA","dtname":"SRI POTTI SRIRAMULU NELLORE","stname":"ANDHRA PRADESH","country":"India"}},{"type":"Feature","geometry":{"type":"Point","coordinates":[79.456923,14.546514]},"properties":{"secretariatName":"TELUGURAYAPURAM","villageName":"TELUGURAYAPURAM","sdtname":"KALUVOYA","dtname":"SRI POTTI SRIRAMULU NELLORE","stname":"ANDHRA PRADESH","country":"India"}},{"type":"Feature","geometry":{"type":"Point","coordinates":[79.441943,14.499267]},"properties":{"secretariatName":"THOPUGUNTA","villageName":"THOPUGUNTA","sdtname":"KALUVOYA","dtname":"SRI POTTI SRIRAMULU NELLORE","stname":"ANDHRA PRADESH","country":"India"}},{"type":"Feature","geometry":{"type":"Point","coordinates":[79.38678,14.427225]},"properties":{"secretariatName":"UYYALAPALLI","villageName":"UYYALAPALLI","sdtname":"KALUVOYA","dtname":"SRI POTTI SRIRAMULU NELLORE","stname":"ANDHRA PRADESH","country":"India"}},{"type":"Feature","geometry":{"type":"Point","coordinates":[79.682187,15.383678]},"properties":{"secretariatName":"G.MEKAPADU","villageName":"G.MEKAPADU","sdtname":"KANDUKUR","dtname":"SRI POTTI SRIRAMULU NELLORE","stname":"ANDHRA PRADESH","country":"India"}},{"type":"Feature","geometry":{"type":"Point","coordinates":[79.86272,15.19894]},"properties":{"secretariatName":"KANCHARAGUNTA","villageName":"KANCHARAGUNTA","sdtname":"KANDUKUR","dtname":"SRI POTTI SRIRAMULU NELLORE","stname":"ANDHRA PRADESH","country":"India"}},{"type":"Feature","geometry":{"type":"Point","coordinates":[79.896436,15.1942377]},"properties":{"secretariatName":"KONDAMUDUSUPALEM","villageName":"KONDAMUDUSUPALEM","sdtname":"KANDUKUR","dtname":"SRI POTTI SRIRAMULU NELLORE","stname":"ANDHRA PRADESH","country":"India"}},{"type":"Feature","geometry":{"type":"Point","coordinates":[79.912617,15.263574]},"properties":{"secretariatName":"KONDIKANDUKUR","villageName":"KONDIKANDUKUR","sdtname":"KANDUKUR","dtname":"SRI POTTI SRIRAMULU NELLORE","stname":"ANDHRA PRADESH","country":"India"}},{"type":"Feature","geometry":{"type":"Point","coordinates":[79.879947,15.26074]},"properties":{"secretariatName":"KOVUR","villageName":"KOVUR","sdtname":"KANDUKUR","dtname":"SRI POTTI SRIRAMULU NELLORE","stname":"ANDHRA PRADESH","country":"India"}},{"type":"Feature","geometry":{"type":"Point","coordinates":[79.899214,15.138016]},"properties":{"secretariatName":"MACHAVARAM","villageName":"MACHAVARAM","sdtname":"KANDUKUR","dtname":"SRI POTTI SRIRAMULU NELLORE","stname":"ANDHRA PRADESH","country":"India"}},{"type":"Feature","geometry":{"type":"Point","coordinates":[79.932037,15.241102]},"properties":{"secretariatName":"MAHADEVAPURAM","villageName":"MAHADEVAPURAM","sdtname":"KANDUKUR","dtname":"SRI POTTI SRIRAMULU NELLORE","stname":"ANDHRA PRADESH","country":"India"}},{"type":"Feature","geometry":{"type":"Point","coordinates":[79.891571,15.1625439]},"properties":{"secretariatName":"MOPADU","villageName":"MOPADU","sdtname":"KANDUKUR","dtname":"SRI POTTI SRIRAMULU NELLORE","stname":"ANDHRA PRADESH","country":"India"}},{"type":"Feature","geometry":{"type":"Point","coordinates":[79.955825,15.236312]},"properties":{"secretariatName":"OGURU","villageName":"OGURU","sdtname":"KANDUKUR","dtname":"SRI POTTI SRIRAMULU NELLORE","stname":"ANDHRA PRADESH","country":"India"}},{"type":"Feature","geometry":{"type":"Point","coordinates":[79.94755,15.26885]},"properties":{"secretariatName":"PALUKUR","villageName":"PALUKUR","sdtname":"KANDUKUR","dtname":"SRI POTTI SRIRAMULU NELLORE","stname":"ANDHRA PRADESH","country":"India"}},{"type":"Feature","geometry":{"type":"Point","coordinates":[79.9395047,15.1446049]},"properties":{"secretariatName":"PALUR-DONDAPADU","villageName":"PALUR-DONDAPADU","sdtname":"KANDUKUR","dtname":"SRI POTTI SRIRAMULU NELLORE","stname":"ANDHRA PRADESH","country":"India"}},{"type":"Feature","geometry":{"type":"Point","coordinates":[79.880224,15.299053]},"properties":{"secretariatName":"PANDALAPADU","villageName":"PANDALAPADU","sdtname":"KANDUKUR","dtname":"SRI POTTI SRIRAMULU NELLORE","stname":"ANDHRA PRADESH","country":"India"}},{"type":"Feature","geometry":{"type":"Point","coordinates":[79.921074,15.289984]},"properties":{"secretariatName":"VIKKIRALAPETA","villageName":"VIKKIRALAPETA","sdtname":"KANDUKUR","dtname":"SRI POTTI SRIRAMULU NELLORE","stname":"ANDHRA PRADESH","country":"India"}},{"type":"Feature","geometry":{"type":"Point","coordinates":[80.014674,14.897832]},"properties":{"secretariatName":"AMUDALADINNE","villageName":"AMUDALADINNE","sdtname":"KAVALI","dtname":"SRI POTTI SRIRAMULU NELLORE","stname":"ANDHRA PRADESH","country":"India"}},{"type":"Feature","geometry":{"type":"Point","coordinates":[80.0254482,14.9378049]},"properties":{"secretariatName":"ANEMADUGU","villageName":"ANEMADUGU","sdtname":"KAVALI","dtname":"SRI POTTI SRIRAMULU NELLORE","stname":"ANDHRA PRADESH","country":"India"}},{"type":"Feature","geometry":{"type":"Point","coordinates":[80.067249,14.83947]},"properties":{"secretariatName":"ANNAGARIPALEM1","villageName":"ANNAGARIPALEM1","sdtname":"KAVALI","dtname":"SRI POTTI SRIRAMULU NELLORE","stname":"ANDHRA PRADESH","country":"India"}},{"type":"Feature","geometry":{"type":"Point","coordinates":[80.073436,14.88809]},"properties":{"secretariatName":"ANNAGARIPALEM2","villageName":"ANNAGARIPALEM2","sdtname":"KAVALI","dtname":"SRI POTTI SRIRAMULU NELLORE","stname":"ANDHRA PRADESH","country":"India"}},{"type":"Feature","geometry":{"type":"Point","coordinates":[79.944916,14.972539]},"properties":{"secretariatName":"CHALAMCHARLA","villageName":"CHALAMCHARLA","sdtname":"KAVALI","dtname":"SRI POTTI SRIRAMULU NELLORE","stname":"ANDHRA PRADESH","country":"India"}},{"type":"Feature","geometry":{"type":"Point","coordinates":[80.004098,14.865221]},"properties":{"secretariatName":"CHENCHUGANIPALEM","villageName":"CHENCHUGANIPALEM","sdtname":"KAVALI","dtname":"SRI POTTI SRIRAMULU NELLORE","stname":"ANDHRA PRADESH","country":"India"}},{"type":"Feature","geometry":{"type":"Point","coordinates":[80.0406886,14.986641]},"properties":{"secretariatName":"CHENNYAPALEM","villageName":"CHENNYAPALEM","sdtname":"KAVALI","dtname":"SRI POTTI SRIRAMULU NELLORE","stname":"ANDHRA PRADESH","country":"India"}},{"type":"Feature","geometry":{"type":"Point","coordinates":[79.993317,14.829406]},"properties":{"secretariatName":"GOWRAVARAM","villageName":"GOWRAVARAM","sdtname":"KAVALI","dtname":"SRI POTTI SRIRAMULU NELLORE","stname":"ANDHRA PRADESH","country":"India"}},{"type":"Feature","geometry":{"type":"Point","coordinates":[79.91156,14.949013]},"properties":{"secretariatName":"KOTHAPALLI","villageName":"KOTHAPALLI","sdtname":"KAVALI","dtname":"SRI POTTI SRIRAMULU NELLORE","stname":"ANDHRA PRADESH","country":"India"}},{"type":"Feature","geometry":{"type":"Point","coordinates":[80.051622,14.972296]},"properties":{"secretariatName":"PEDDAPATTAPUPALEM","villageName":"PEDDAPATTAPUPALEM","sdtname":"KAVALI","dtname":"SRI POTTI SRIRAMULU NELLORE","stname":"ANDHRA PRADESH","country":"India"}},{"type":"Feature","geometry":{"type":"Point","coordinates":[80.006624,14.976896]},"properties":{"secretariatName":"RUDRAKOTA","villageName":"RUDRAKOTA","sdtname":"KAVALI","dtname":"SRI POTTI SRIRAMULU NELLORE","stname":"ANDHRA PRADESH","country":"India"}},{"type":"Feature","geometry":{"type":"Point","coordinates":[80.025311,14.935297]},"properties":{"secretariatName":"SARVAYAPALEM","villageName":"SARVAYAPALEM","sdtname":"KAVALI","dtname":"SRI POTTI SRIRAMULU NELLORE","stname":"ANDHRA PRADESH","country":"India"}},{"type":"Feature","geometry":{"type":"Point","coordinates":[79.961805,14.952282]},"properties":{"secretariatName":"SIRIPURAM","villageName":"SIRIPURAM","sdtname":"KAVALI","dtname":"SRI POTTI SRIRAMULU NELLORE","stname":"ANDHRA PRADESH","country":"India"}},{"type":"Feature","geometry":{"type":"Point","coordinates":[80.023466,14.857534]},"properties":{"secretariatName":"THALLAPALEM","villageName":"THALLAPALEM","sdtname":"KAVALI","dtname":"SRI POTTI SRIRAMULU NELLORE","stname":"ANDHRA PRADESH","country":"India"}},{"type":"Feature","geometry":{"type":"Point","coordinates":[80.0651919,14.900774]},"properties":{"secretariatName":"THUMMALAPENTA1","villageName":"THUMMALAPENTA1","sdtname":"KAVALI","dtname":"SRI POTTI SRIRAMULU NELLORE","stname":"ANDHRA PRADESH","country":"India"}},{"type":"Feature","geometry":{"type":"Point","coordinates":[80.0603573,14.9285534]},"properties":{"secretariatName":"THUMMALAPENTA2","villageName":"THUMMALAPENTA2","sdtname":"KAVALI","dtname":"SRI POTTI SRIRAMULU NELLORE","stname":"ANDHRA PRADESH","country":"India"}},{"type":"Feature","geometry":{"type":"Point","coordinates":[80.02382,14.556654]},"properties":{"secretariatName":"ALURUPADU","villageName":"ALURUPADU","sdtname":"KODAVALUR","dtname":"SRI POTTI SRIRAMULU NELLORE","stname":"ANDHRA PRADESH","country":"India"}},{"type":"Feature","geometry":{"type":"Point","coordinates":[80.0302101,14.6091098]},"properties":{"secretariatName":"DAMEGUNTA","villageName":"DAMEGUNTA","sdtname":"KODAVALUR","dtname":"SRI POTTI SRIRAMULU NELLORE","stname":"ANDHRA PRADESH","country":"India"}},{"type":"Feature","geometry":{"type":"Point","coordinates":[79.9737546,14.5693717]},"properties":{"secretariatName":"GANDAVARAM","villageName":"GANDAVARAM","sdtname":"KODAVALUR","dtname":"SRI POTTI SRIRAMULU NELLORE","stname":"ANDHRA PRADESH","country":"India"}},{"type":"Feature","geometry":{"type":"Point","coordinates":[79.9774033,14.5702203]},"properties":{"secretariatName":"GOWTHAMNAGAR","villageName":"GOWTHAMNAGAR","sdtname":"KODAVALUR","dtname":"SRI POTTI SRIRAMULU NELLORE","stname":"ANDHRA PRADESH","country":"India"}},{"type":"Feature","geometry":{"type":"Point","coordinates":[80.015926,14.582688]},"properties":{"secretariatName":"GUNDALAMMAPALEM","villageName":"GUNDALAMMAPALEM","sdtname":"KODAVALUR","dtname":"SRI POTTI SRIRAMULU NELLORE","stname":"ANDHRA PRADESH","country":"India"}},{"type":"Feature","geometry":{"type":"Point","coordinates":[79.9827751,14.5916244]},"properties":{"secretariatName":"KAMMAPALEM","villageName":"KAMMAPALEM","sdtname":"KODAVALUR","dtname":"SRI POTTI SRIRAMULU NELLORE","stname":"ANDHRA PRADESH","country":"India"}},{"type":"Feature","geometry":{"type":"Point","coordinates":[80.0022244,14.5670522]},"properties":{"secretariatName":"KODAVALUR","villageName":"KODAVALUR","sdtname":"KODAVALUR","dtname":"SRI POTTI SRIRAMULU NELLORE","stname":"ANDHRA PRADESH","country":"India"}},{"type":"Feature","geometry":{"type":"Point","coordinates":[79.9330482,14.576805]},"properties":{"secretariatName":"KOTHAVANGALLU","villageName":"KOTHAVANGALLU","sdtname":"KODAVALUR","dtname":"SRI POTTI SRIRAMULU NELLORE","stname":"ANDHRA PRADESH","country":"India"}},{"type":"Feature","geometry":{"type":"Point","coordinates":[79.9464,14.556146]},"properties":{"secretariatName":"MIKKILIMPETA","villageName":"MIKKILIMPETA","sdtname":"KODAVALUR","dtname":"SRI POTTI SRIRAMULU NELLORE","stname":"ANDHRA PRADESH","country":"India"}},{"type":"Feature","geometry":{"type":"Point","coordinates":[79.9893474,14.5508138]},"properties":{"secretariatName":"NORTHRAJUPALEM1","villageName":"NORTHRAJUPALEM1","sdtname":"KODAVALUR","dtname":"SRI POTTI SRIRAMULU NELLORE","stname":"ANDHRA PRADESH","country":"India"}},{"type":"Feature","geometry":{"type":"Point","coordinates":[79.9897276,14.5527506]},"properties":{"secretariatName":"NORTHRAJUPALEM2","villageName":"NORTHRAJUPALEM2","sdtname":"KODAVALUR","dtname":"SRI POTTI SRIRAMULU NELLORE","stname":"ANDHRA PRADESH","country":"India"}},{"type":"Feature","geometry":{"type":"Point","coordinates":[80.003313,14.541154]},"properties":{"secretariatName":"RAMANNAPALEM","villageName":"RAMANNAPALEM","sdtname":"KODAVALUR","dtname":"SRI POTTI SRIRAMULU NELLORE","stname":"ANDHRA PRADESH","country":"India"}},{"type":"Feature","geometry":{"type":"Point","coordinates":[79.9818071,14.617367]},"properties":{"secretariatName":"REGADICHELIKA","villageName":"REGADICHELIKA","sdtname":"KODAVALUR","dtname":"SRI POTTI SRIRAMULU NELLORE","stname":"ANDHRA PRADESH","country":"India"}},{"type":"Feature","geometry":{"type":"Point","coordinates":[80.0133026,14.6198796]},"properties":{"secretariatName":"TALAMANCHI","villageName":"TALAMANCHI","sdtname":"KODAVALUR","dtname":"SRI POTTI SRIRAMULU NELLORE","stname":"ANDHRA PRADESH","country":"India"}},{"type":"Feature","geometry":{"type":"Point","coordinates":[79.9516212,14.5388802]},"properties":{"secretariatName":"YELLAYAPALEM1","villageName":"YELLAYAPALEM1","sdtname":"KODAVALUR","dtname":"SRI POTTI SRIRAMULU NELLORE","stname":"ANDHRA PRADESH","country":"India"}},{"type":"Feature","geometry":{"type":"Point","coordinates":[79.938039,14.548735]},"properties":{"secretariatName":"YELLAYAPALEM2","villageName":"YELLAYAPALEM2","sdtname":"KODAVALUR","dtname":"SRI POTTI SRIRAMULU NELLORE","stname":"ANDHRA PRADESH","country":"India"}},{"type":"Feature","geometry":{"type":"Point","coordinates":[79.6476398,14.9779546]},"properties":{"secretariatName":"CHINTHALADEVI","villageName":"CHINTHALADEVI","sdtname":"KONDAPURAM","dtname":"SRI POTTI SRIRAMULU NELLORE","stname":"ANDHRA PRADESH","country":"India"}},{"type":"Feature","geometry":{"type":"Point","coordinates":[79.713188,14.959062]},"properties":{"secretariatName":"GANUGAPENTA","villageName":"GANUGAPENTA","sdtname":"KONDAPURAM","dtname":"SRI POTTI SRIRAMULU NELLORE","stname":"ANDHRA PRADESH","country":"India"}},{"type":"Feature","geometry":{"type":"Point","coordinates":[79.5485775,14.99301]},"properties":{"secretariatName":"GARIMINAPENTA","villageName":"GARIMINAPENTA","sdtname":"KONDAPURAM","dtname":"SRI POTTI SRIRAMULU NELLORE","stname":"ANDHRA PRADESH","country":"India"}},{"type":"Feature","geometry":{"type":"Point","coordinates":[79.593981,14.934241]},"properties":{"secretariatName":"GOTTIGUNDALA","villageName":"GOTTIGUNDALA","sdtname":"KONDAPURAM","dtname":"SRI POTTI SRIRAMULU NELLORE","stname":"ANDHRA PRADESH","country":"India"}},{"type":"Feature","geometry":{"type":"Point","coordinates":[79.6829699,14.9907036]},"properties":{"secretariatName":"GUDAVALURU","villageName":"GUDAVALURU","sdtname":"KONDAPURAM","dtname":"SRI POTTI SRIRAMULU NELLORE","stname":"ANDHRA PRADESH","country":"India"}},{"type":"Feature","geometry":{"type":"Point","coordinates":[79.569154,15.020095]},"properties":{"secretariatName":"ISAKADHAMERLA","villageName":"ISAKADHAMERLA","sdtname":"KONDAPURAM","dtname":"SRI POTTI SRIRAMULU NELLORE","stname":"ANDHRA PRADESH","country":"India"}},{"type":"Feature","geometry":{"type":"Point","coordinates":[79.764402,14.9649781]},"properties":{"secretariatName":"KOMMI","villageName":"KOMMI","sdtname":"KONDAPURAM","dtname":"SRI POTTI SRIRAMULU NELLORE","stname":"ANDHRA PRADESH","country":"India"}},{"type":"Feature","geometry":{"type":"Point","coordinates":[79.7185422,15.0404914]},"properties":{"secretariatName":"NEKUNAMPET","villageName":"NEKUNAMPET","sdtname":"KONDAPURAM","dtname":"SRI POTTI SRIRAMULU NELLORE","stname":"ANDHRA PRADESH","country":"India"}},{"type":"Feature","geometry":{"type":"Point","coordinates":[79.725929,15.000763]},"properties":{"secretariatName":"PARLAPALLI","villageName":"PARLAPALLI","sdtname":"KONDAPURAM","dtname":"SRI POTTI SRIRAMULU NELLORE","stname":"ANDHRA PRADESH","country":"India"}},{"type":"Feature","geometry":{"type":"Point","coordinates":[79.75526,15.031548]},"properties":{"secretariatName":"SAIPET","villageName":"SAIPET","sdtname":"KONDAPURAM","dtname":"SRI POTTI SRIRAMULU NELLORE","stname":"ANDHRA PRADESH","country":"India"}},{"type":"Feature","geometry":{"type":"Point","coordinates":[79.7583876,14.9665228]},"properties":{"secretariatName":"SATYAVOLU","villageName":"SATYAVOLU","sdtname":"KONDAPURAM","dtname":"SRI POTTI SRIRAMULU NELLORE","stname":"ANDHRA PRADESH","country":"India"}},{"type":"Feature","geometry":{"type":"Point","coordinates":[79.602107,14.997251]},"properties":{"secretariatName":"THURUPUYERRABALLI","villageName":"THURUPUYERRABALLI","sdtname":"KONDAPURAM","dtname":"SRI POTTI SRIRAMULU NELLORE","stname":"ANDHRA PRADESH","country":"India"}},{"type":"Feature","geometry":{"type":"Point","coordinates":[79.626655,15.027603]},"properties":{"secretariatName":"VELIGNDALA","villageName":"VELIGNDALA","sdtname":"KONDAPURAM","dtname":"SRI POTTI SRIRAMULU NELLORE","stname":"ANDHRA PRADESH","country":"India"}},{"type":"Feature","geometry":{"type":"Point","coordinates":[80.018518,14.528938]},"properties":{"secretariatName":"CHERLOPALEM","villageName":"CHERLOPALEM","sdtname":"KOVUR","dtname":"SRI POTTI SRIRAMULU NELLORE","stname":"ANDHRA PRADESH","country":"India"}},{"type":"Feature","geometry":{"type":"Point","coordinates":[79.9575803,14.4958115]},"properties":{"secretariatName":"GANGAVARAM","villageName":"GANGAVARAM","sdtname":"KOVUR","dtname":"SRI POTTI SRIRAMULU NELLORE","stname":"ANDHRA PRADESH","country":"India"}},{"type":"Feature","geometry":{"type":"Point","coordinates":[80.0142619,14.510613]},"properties":{"secretariatName":"INAMADUGU1","villageName":"INAMADUGU1","sdtname":"KOVUR","dtname":"SRI POTTI SRIRAMULU NELLORE","stname":"ANDHRA PRADESH","country":"India"}},{"type":"Feature","geometry":{"type":"Point","coordinates":[80.013705,14.5105892]},"properties":{"secretariatName":"INAMADUGU2","villageName":"INAMADUGU2","sdtname":"KOVUR","dtname":"SRI POTTI SRIRAMULU NELLORE","stname":"ANDHRA PRADESH","country":"India"}},{"type":"Feature","geometry":{"type":"Point","coordinates":[79.9844628,14.503149]},"properties":{"secretariatName":"KOVUR1","villageName":"KOVUR1","sdtname":"KOVUR","dtname":"SRI POTTI SRIRAMULU NELLORE","stname":"ANDHRA PRADESH","country":"India"}},{"type":"Feature","geometry":{"type":"Point","coordinates":[79.9882681,14.5087497]},"properties":{"secretariatName":"KOVUR2","villageName":"KOVUR2","sdtname":"KOVUR","dtname":"SRI POTTI SRIRAMULU NELLORE","stname":"ANDHRA PRADESH","country":"India"}},{"type":"Feature","geometry":{"type":"Point","coordinates":[79.9829103,14.5068651]},"properties":{"secretariatName":"KOVUR3","villageName":"KOVUR3","sdtname":"KOVUR","dtname":"SRI POTTI SRIRAMULU NELLORE","stname":"ANDHRA PRADESH","country":"India"}},{"type":"Feature","geometry":{"type":"Point","coordinates":[79.966128,14.511976]},"properties":{"secretariatName":"KOVUR4","villageName":"KOVUR4","sdtname":"KOVUR","dtname":"SRI POTTI SRIRAMULU NELLORE","stname":"ANDHRA PRADESH","country":"India"}},{"type":"Feature","geometry":{"type":"Point","coordinates":[79.983783,14.494609]},"properties":{"secretariatName":"KOVUR5","villageName":"KOVUR5","sdtname":"KOVUR","dtname":"SRI POTTI SRIRAMULU NELLORE","stname":"ANDHRA PRADESH","country":"India"}},{"type":"Feature","geometry":{"type":"Point","coordinates":[80.0299135,14.5152549]},"properties":{"secretariatName":"LEGUNTAPADU","villageName":"LEGUNTAPADU","sdtname":"KOVUR","dtname":"SRI POTTI SRIRAMULU NELLORE","stname":"ANDHRA PRADESH","country":"India"}},{"type":"Feature","geometry":{"type":"Point","coordinates":[79.9937692,14.4944453]},"properties":{"secretariatName":"PADUGUPADU1","villageName":"PADUGUPADU1","sdtname":"KOVUR","dtname":"SRI POTTI SRIRAMULU NELLORE","stname":"ANDHRA PRADESH","country":"India"}},{"type":"Feature","geometry":{"type":"Point","coordinates":[79.9930864,14.4878481]},"properties":{"secretariatName":"PADUGUPADU2","villageName":"PADUGUPADU2","sdtname":"KOVUR","dtname":"SRI POTTI SRIRAMULU NELLORE","stname":"ANDHRA PRADESH","country":"India"}},{"type":"Feature","geometry":{"type":"Point","coordinates":[79.9869314,14.4936353]},"properties":{"secretariatName":"PADUGUPADU3","villageName":"PADUGUPADU3","sdtname":"KOVUR","dtname":"SRI POTTI SRIRAMULU NELLORE","stname":"ANDHRA PRADESH","country":"India"}},{"type":"Feature","geometry":{"type":"Point","coordinates":[79.9397615,14.5145648]},"properties":{"secretariatName":"PATUR","villageName":"PATUR","sdtname":"KOVUR","dtname":"SRI POTTI SRIRAMULU NELLORE","stname":"ANDHRA PRADESH","country":"India"}},{"type":"Feature","geometry":{"type":"Point","coordinates":[79.9696921,14.4798121]},"properties":{"secretariatName":"POTHIREDDYPALEM","villageName":"POTHIREDDYPALEM","sdtname":"KOVUR","dtname":"SRI POTTI SRIRAMULU NELLORE","stname":"ANDHRA PRADESH","country":"India"}},{"type":"Feature","geometry":{"type":"Point","coordinates":[80.0544037,14.5382064]},"properties":{"secretariatName":"VEGUR","villageName":"VEGUR","sdtname":"KOVUR","dtname":"SRI POTTI SRIRAMULU NELLORE","stname":"ANDHRA PRADESH","country":"India"}},{"type":"Feature","geometry":{"type":"Point","coordinates":[79.792978,15.071104]},"properties":{"secretariatName":"ANNEBOINAPALLI","villageName":"ANNEBOINAPALLI","sdtname":"LINGASAMUDRAM","dtname":"SRI POTTI SRIRAMULU NELLORE","stname":"ANDHRA PRADESH","country":"India"}},{"type":"Feature","geometry":{"type":"Point","coordinates":[79.821318,15.025148]},"properties":{"secretariatName":"CHINAPAVANI","villageName":"CHINAPAVANI","sdtname":"LINGASAMUDRAM","dtname":"SRI POTTI SRIRAMULU NELLORE","stname":"ANDHRA PRADESH","country":"India"}},{"type":"Feature","geometry":{"type":"Point","coordinates":[79.71302,15.094857]},"properties":{"secretariatName":"LINGASAMUDRAM1","villageName":"LINGASAMUDRAM1","sdtname":"LINGASAMUDRAM","dtname":"SRI POTTI SRIRAMULU NELLORE","stname":"ANDHRA PRADESH","country":"India"}},{"type":"Feature","geometry":{"type":"Point","coordinates":[79.7214756,15.076819]},"properties":{"secretariatName":"LINGASAMUDRAM2","villageName":"LINGASAMUDRAM2","sdtname":"LINGASAMUDRAM","dtname":"SRI POTTI SRIRAMULU NELLORE","stname":"ANDHRA PRADESH","country":"India"}},{"type":"Feature","geometry":{"type":"Point","coordinates":[79.7524299,15.1249866]},"properties":{"secretariatName":"MALAKONDARAYUNIPALEM","villageName":"MALAKONDARAYUNIPALEM","sdtname":"LINGASAMUDRAM","dtname":"SRI POTTI SRIRAMULU NELLORE","stname":"ANDHRA PRADESH","country":"India"}},{"type":"Feature","geometry":{"type":"Point","coordinates":[79.6594313,15.0601788]},"properties":{"secretariatName":"MOGILICHERLA","villageName":"MOGILICHERLA","sdtname":"LINGASAMUDRAM","dtname":"SRI POTTI SRIRAMULU NELLORE","stname":"ANDHRA PRADESH","country":"India"}},{"type":"Feature","geometry":{"type":"Point","coordinates":[79.81065498,14.99598164]},"properties":{"secretariatName":"MUTYALAPADU","villageName":"MUTYALAPADU","sdtname":"LINGASAMUDRAM","dtname":"SRI POTTI SRIRAMULU NELLORE","stname":"ANDHRA PRADESH","country":"India"}},{"type":"Feature","geometry":{"type":"Point","coordinates":[79.8158417,15.0062555]},"properties":{"secretariatName":"PEDAPAVANI1","villageName":"PEDAPAVANI1","sdtname":"LINGASAMUDRAM","dtname":"SRI POTTI SRIRAMULU NELLORE","stname":"ANDHRA PRADESH","country":"India"}},{"type":"Feature","geometry":{"type":"Point","coordinates":[79.8148996,15.0054562]},"properties":{"secretariatName":"PEDAPAVANI2","villageName":"PEDAPAVANI2","sdtname":"LINGASAMUDRAM","dtname":"SRI POTTI SRIRAMULU NELLORE","stname":"ANDHRA PRADESH","country":"India"}},{"type":"Feature","geometry":{"type":"Point","coordinates":[79.7193368,15.0668569]},"properties":{"secretariatName":"PENTRALA","villageName":"PENTRALA","sdtname":"LINGASAMUDRAM","dtname":"SRI POTTI SRIRAMULU NELLORE","stname":"ANDHRA PRADESH","country":"India"}},{"type":"Feature","geometry":{"type":"Point","coordinates":[79.73097671,15.09841707]},"properties":{"secretariatName":"THIMMAREDDYPALEM","villageName":"THIMMAREDDYPALEM","sdtname":"LINGASAMUDRAM","dtname":"SRI POTTI SRIRAMULU NELLORE","stname":"ANDHRA PRADESH","country":"India"}},{"type":"Feature","geometry":{"type":"Point","coordinates":[79.7933969,15.1042444]},"properties":{"secretariatName":"VEERARAGHAVUNIKOTA","villageName":"VEERARAGHAVUNIKOTA","sdtname":"LINGASAMUDRAM","dtname":"SRI POTTI SRIRAMULU NELLORE","stname":"ANDHRA PRADESH","country":"India"}},{"type":"Feature","geometry":{"type":"Point","coordinates":[79.6985094,15.1162504]},"properties":{"secretariatName":"YERRAREDDYPALEM","villageName":"YERRAREDDYPALEM","sdtname":"LINGASAMUDRAM","dtname":"SRI POTTI SRIRAMULU NELLORE","stname":"ANDHRA PRADESH","country":"India"}},{"type":"Feature","geometry":{"type":"Point","coordinates":[79.824226,14.283126]},"properties":{"secretariatName":"AKKAMPETA","villageName":"AKKAMPETA","sdtname":"MANUBOLU","dtname":"SRI POTTI SRIRAMULU NELLORE","stname":"ANDHRA PRADESH","country":"India"}},{"type":"Feature","geometry":{"type":"Point","coordinates":[79.9135648,14.1720061]},"properties":{"secretariatName":"BADDEVOLU","villageName":"BADDEVOLU","sdtname":"MANUBOLU","dtname":"SRI POTTI SRIRAMULU NELLORE","stname":"ANDHRA PRADESH","country":"India"}},{"type":"Feature","geometry":{"type":"Point","coordinates":[79.866587,14.220234]},"properties":{"secretariatName":"CHERLOPALLI","villageName":"CHERLOPALLI","sdtname":"MANUBOLU","dtname":"SRI POTTI SRIRAMULU NELLORE","stname":"ANDHRA PRADESH","country":"India"}},{"type":"Feature","geometry":{"type":"Point","coordinates":[79.848219,14.286651]},"properties":{"secretariatName":"CHERUKUMUDI","villageName":"CHERUKUMUDI","sdtname":"MANUBOLU","dtname":"SRI POTTI SRIRAMULU NELLORE","stname":"ANDHRA PRADESH","country":"India"}},{"type":"Feature","geometry":{"type":"Point","coordinates":[79.920067,14.27085]},"properties":{"secretariatName":"GURUVINDAPUDI","villageName":"GURUVINDAPUDI","sdtname":"MANUBOLU","dtname":"SRI POTTI SRIRAMULU NELLORE","stname":"ANDHRA PRADESH","country":"India"}},{"type":"Feature","geometry":{"type":"Point","coordinates":[79.8772233,14.2410696]},"properties":{"secretariatName":"JATLAKONDURU","villageName":"JATLAKONDURU","sdtname":"MANUBOLU","dtname":"SRI POTTI SRIRAMULU NELLORE","stname":"ANDHRA PRADESH","country":"India"}},{"type":"Feature","geometry":{"type":"Point","coordinates":[79.8950695,14.2198778]},"properties":{"secretariatName":"KAGITHALAPUR","villageName":"KAGITHALAPUR","sdtname":"MANUBOLU","dtname":"SRI POTTI SRIRAMULU NELLORE","stname":"ANDHRA PRADESH","country":"India"}},{"type":"Feature","geometry":{"type":"Point","coordinates":[79.939447,14.174916]},"properties":{"secretariatName":"KATTUVAPALLI","villageName":"KATTUVAPALLI","sdtname":"MANUBOLU","dtname":"SRI POTTI SRIRAMULU NELLORE","stname":"ANDHRA PRADESH","country":"India"}},{"type":"Feature","geometry":{"type":"Point","coordinates":[79.842965,14.236361]},"properties":{"secretariatName":"MADAMANURU","villageName":"MADAMANURU","sdtname":"MANUBOLU","dtname":"SRI POTTI SRIRAMULU NELLORE","stname":"ANDHRA PRADESH","country":"India"}},{"type":"Feature","geometry":{"type":"Point","coordinates":[79.8723317,14.1998745]},"properties":{"secretariatName":"MANUBOLU1","villageName":"MANUBOLU1","sdtname":"MANUBOLU","dtname":"SRI POTTI SRIRAMULU NELLORE","stname":"ANDHRA PRADESH","country":"India"}},{"type":"Feature","geometry":{"type":"Point","coordinates":[79.87518,14.209423]},"properties":{"secretariatName":"MANUBOLU2","villageName":"MANUBOLU2","sdtname":"MANUBOLU","dtname":"SRI POTTI SRIRAMULU NELLORE","stname":"ANDHRA PRADESH","country":"India"}},{"type":"Feature","geometry":{"type":"Point","coordinates":[79.889572,14.197931]},"properties":{"secretariatName":"PIDURU","villageName":"PIDURU","sdtname":"MANUBOLU","dtname":"SRI POTTI SRIRAMULU NELLORE","stname":"ANDHRA PRADESH","country":"India"}},{"type":"Feature","geometry":{"type":"Point","coordinates":[79.8130546,14.2825568]},"properties":{"secretariatName":"VEERAMPALLI","villageName":"VEERAMPALLI","sdtname":"MANUBOLU","dtname":"SRI POTTI SRIRAMULU NELLORE","stname":"ANDHRA PRADESH","country":"India"}},{"type":"Feature","geometry":{"type":"Point","coordinates":[79.9021,14.1718874]},"properties":{"secretariatName":"VENKANNAPALEM","villageName":"VENKANNAPALEM","sdtname":"MANUBOLU","dtname":"SRI POTTI SRIRAMULU NELLORE","stname":"ANDHRA PRADESH","country":"India"}},{"type":"Feature","geometry":{"type":"Point","coordinates":[79.360216,14.717888]},"properties":{"secretariatName":"ALLAMPADU","villageName":"ALLAMPADU","sdtname":"MARRIPADU","dtname":"SRI POTTI SRIRAMULU NELLORE","stname":"ANDHRA PRADESH","country":"India"}},{"type":"Feature","geometry":{"type":"Point","coordinates":[79.416164,14.713944]},"properties":{"secretariatName":"BHEEMAVARAM","villageName":"BHEEMAVARAM","sdtname":"MARRIPADU","dtname":"SRI POTTI SRIRAMULU NELLORE","stname":"ANDHRA PRADESH","country":"India"}},{"type":"Feature","geometry":{"type":"Point","coordinates":[79.242467,14.747083]},"properties":{"secretariatName":"BRAHMANAPALLI","villageName":"BRAHMANAPALLI","sdtname":"MARRIPADU","dtname":"SRI POTTI SRIRAMULU NELLORE","stname":"ANDHRA PRADESH","country":"India"}},{"type":"Feature","geometry":{"type":"Point","coordinates":[79.298806,14.771921]},"properties":{"secretariatName":"BUDAWADA","villageName":"BUDAWADA","sdtname":"MARRIPADU","dtname":"SRI POTTI SRIRAMULU NELLORE","stname":"ANDHRA PRADESH","country":"India"}},{"type":"Feature","geometry":{"type":"Point","coordinates":[79.319037,14.739946]},"properties":{"secretariatName":"CHILAKAPADU","villageName":"CHILAKAPADU","sdtname":"MARRIPADU","dtname":"SRI POTTI SRIRAMULU NELLORE","stname":"ANDHRA PRADESH","country":"India"}},{"type":"Feature","geometry":{"type":"Point","coordinates":[79.392345,14.744684]},"properties":{"secretariatName":"CHINAMACHANURU","villageName":"CHINAMACHANURU","sdtname":"MARRIPADU","dtname":"SRI POTTI SRIRAMULU NELLORE","stname":"ANDHRA PRADESH","country":"India"}},{"type":"Feature","geometry":{"type":"Point","coordinates":[79.28387,14.636313]},"properties":{"secretariatName":"CHUNCHULURU","villageName":"CHUNCHULURU","sdtname":"MARRIPADU","dtname":"SRI POTTI SRIRAMULU NELLORE","stname":"ANDHRA PRADESH","country":"India"}},{"type":"Feature","geometry":{"type":"Point","coordinates":[79.503695,14.68607]},"properties":{"secretariatName":"DCPALLI","villageName":"DCPALLI","sdtname":"MARRIPADU","dtname":"SRI POTTI SRIRAMULU NELLORE","stname":"ANDHRA PRADESH","country":"India"}},{"type":"Feature","geometry":{"type":"Point","coordinates":[79.3311605,14.7083482]},"properties":{"secretariatName":"IRLAPADU","villageName":"IRLAPADU","sdtname":"MARRIPADU","dtname":"SRI POTTI SRIRAMULU NELLORE","stname":"ANDHRA PRADESH","country":"India"}},{"type":"Feature","geometry":{"type":"Point","coordinates":[79.248239,14.777896]},"properties":{"secretariatName":"KAMPASAMUDRAM","villageName":"KAMPASAMUDRAM","sdtname":"MARRIPADU","dtname":"SRI POTTI SRIRAMULU NELLORE","stname":"ANDHRA PRADESH","country":"India"}},{"type":"Feature","geometry":{"type":"Point","coordinates":[79.3491302,14.6987842]},"properties":{"secretariatName":"MARRIPADU","villageName":"MARRIPADU","sdtname":"MARRIPADU","dtname":"SRI POTTI SRIRAMULU NELLORE","stname":"ANDHRA PRADESH","country":"India"}},{"type":"Feature","geometry":{"type":"Point","coordinates":[79.465869,14.699691]},"properties":{"secretariatName":"NANDAVARAM","villageName":"NANDAVARAM","sdtname":"MARRIPADU","dtname":"SRI POTTI SRIRAMULU NELLORE","stname":"ANDHRA PRADESH","country":"India"}},{"type":"Feature","geometry":{"type":"Point","coordinates":[79.2579772,14.6365805]},"properties":{"secretariatName":"PADAMATINAIDUPALLI","villageName":"PADAMATINAIDUPALLI","sdtname":"MARRIPADU","dtname":"SRI POTTI SRIRAMULU NELLORE","stname":"ANDHRA PRADESH","country":"India"}},{"type":"Feature","geometry":{"type":"Point","coordinates":[79.358452,14.643813]},"properties":{"secretariatName":"PALLAVOLU","villageName":"PALLAVOLU","sdtname":"MARRIPADU","dtname":"SRI POTTI SRIRAMULU NELLORE","stname":"ANDHRA PRADESH","country":"India"}},{"type":"Feature","geometry":{"type":"Point","coordinates":[79.407262,14.662512]},"properties":{"secretariatName":"PONGURU","villageName":"PONGURU","sdtname":"MARRIPADU","dtname":"SRI POTTI SRIRAMULU NELLORE","stname":"ANDHRA PRADESH","country":"India"}},{"type":"Feature","geometry":{"type":"Point","coordinates":[79.439821,14.714531]},"properties":{"secretariatName":"RAMANAIDUPALLI","villageName":"RAMANAIDUPALLI","sdtname":"MARRIPADU","dtname":"SRI POTTI SRIRAMULU NELLORE","stname":"ANDHRA PRADESH","country":"India"}},{"type":"Feature","geometry":{"type":"Point","coordinates":[79.228411,14.705206]},"properties":{"secretariatName":"SINGANAPALLI","villageName":"SINGANAPALLI","sdtname":"MARRIPADU","dtname":"SRI POTTI SRIRAMULU NELLORE","stname":"ANDHRA PRADESH","country":"India"}},{"type":"Feature","geometry":{"type":"Point","coordinates":[80.0636478,14.3434214]},"properties":{"secretariatName":"BRAHMADEVAM1","villageName":"BRAHMADEVAM1","sdtname":"MUTHUKUR","dtname":"SRI POTTI SRIRAMULU NELLORE","stname":"ANDHRA PRADESH","country":"India"}},{"type":"Feature","geometry":{"type":"Point","coordinates":[80.0636478,14.3434214]},"properties":{"secretariatName":"BRAHMADEVAM2","villageName":"BRAHMADEVAM2","sdtname":"MUTHUKUR","dtname":"SRI POTTI SRIRAMULU NELLORE","stname":"ANDHRA PRADESH","country":"India"}},{"type":"Feature","geometry":{"type":"Point","coordinates":[80.0526191,14.2301312]},"properties":{"secretariatName":"DORUVULAPALEM","villageName":"DORUVULAPALEM","sdtname":"MUTHUKUR","dtname":"SRI POTTI SRIRAMULU NELLORE","stname":"ANDHRA PRADESH","country":"India"}},{"type":"Feature","geometry":{"type":"Point","coordinates":[80.123034,14.288085]},"properties":{"secretariatName":"KRISHNAPATNAM","villageName":"KRISHNAPATNAM","sdtname":"MUTHUKUR","dtname":"SRI POTTI SRIRAMULU NELLORE","stname":"ANDHRA PRADESH","country":"India"}},{"type":"Feature","geometry":{"type":"Point","coordinates":[80.0780958,14.3121611]},"properties":{"secretariatName":"MOLLURU","villageName":"MOLLURU","sdtname":"MUTHUKUR","dtname":"SRI POTTI SRIRAMULU NELLORE","stname":"ANDHRA PRADESH","country":"India"}},{"type":"Feature","geometry":{"type":"Point","coordinates":[80.107496,14.345221]},"properties":{"secretariatName":"MUSUNURUVARIPALEM","villageName":"MUSUNURUVARIPALEM","sdtname":"MUTHUKUR","dtname":"SRI POTTI SRIRAMULU NELLORE","stname":"ANDHRA PRADESH","country":"India"}},{"type":"Feature","geometry":{"type":"Point","coordinates":[80.090941,14.2954856]},"properties":{"secretariatName":"MUTHUKUR1","villageName":"MUTHUKUR1","sdtname":"MUTHUKUR","dtname":"SRI POTTI SRIRAMULU NELLORE","stname":"ANDHRA PRADESH","country":"India"}},{"type":"Feature","geometry":{"type":"Point","coordinates":[80.0953765,14.3038449]},"properties":{"secretariatName":"MUTHUKUR2","villageName":"MUTHUKUR2","sdtname":"MUTHUKUR","dtname":"SRI POTTI SRIRAMULU NELLORE","stname":"ANDHRA PRADESH","country":"India"}},{"type":"Feature","geometry":{"type":"Point","coordinates":[80.081161,14.280179]},"properties":{"secretariatName":"MUTHUKUR3","villageName":"MUTHUKUR3","sdtname":"MUTHUKUR","dtname":"SRI POTTI SRIRAMULU NELLORE","stname":"ANDHRA PRADESH","country":"India"}},{"type":"Feature","geometry":{"type":"Point","coordinates":[80.068794,14.291162]},"properties":{"secretariatName":"NARIKELLAPALLI","villageName":"NARIKELLAPALLI","sdtname":"MUTHUKUR","dtname":"SRI POTTI SRIRAMULU NELLORE","stname":"ANDHRA PRADESH","country":"India"}},{"type":"Feature","geometry":{"type":"Point","coordinates":[80.124772,14.336648]},"properties":{"secretariatName":"NELATURU","villageName":"NELATURU","sdtname":"MUTHUKUR","dtname":"SRI POTTI SRIRAMULU NELLORE","stname":"ANDHRA PRADESH","country":"India"}},{"type":"Feature","geometry":{"type":"Point","coordinates":[80.047968,14.266076]},"properties":{"secretariatName":"PANTAPALEM","villageName":"PANTAPALEM","sdtname":"MUTHUKUR","dtname":"SRI POTTI SRIRAMULU NELLORE","stname":"ANDHRA PRADESH","country":"India"}},{"type":"Feature","geometry":{"type":"Point","coordinates":[80.081185,14.352401]},"properties":{"secretariatName":"PIDATHAPOLUR","villageName":"PIDATHAPOLUR","sdtname":"MUTHUKUR","dtname":"SRI POTTI SRIRAMULU NELLORE","stname":"ANDHRA PRADESH","country":"India"}},{"type":"Feature","geometry":{"type":"Point","coordinates":[80.03013226,14.31798379]},"properties":{"secretariatName":"SARVEPALLIBIT-V","villageName":"SARVEPALLIBIT-V","sdtname":"MUTHUKUR","dtname":"SRI POTTI SRIRAMULU NELLORE","stname":"ANDHRA PRADESH","country":"India"}},{"type":"Feature","geometry":{"type":"Point","coordinates":[80.078456,14.327787]},"properties":{"secretariatName":"TALLAPUDI","villageName":"TALLAPUDI","sdtname":"MUTHUKUR","dtname":"SRI POTTI SRIRAMULU NELLORE","stname":"ANDHRA PRADESH","country":"India"}},{"type":"Feature","geometry":{"type":"Point","coordinates":[80.057547,14.321108]},"properties":{"secretariatName":"VALLURU","villageName":"VALLURU","sdtname":"MUTHUKUR","dtname":"SRI POTTI SRIRAMULU NELLORE","stname":"ANDHRA PRADESH","country":"India"}},{"type":"Feature","geometry":{"type":"Point","coordinates":[79.8547182,14.4127643]},"properties":{"secretariatName":"AMANCHERLA","villageName":"AMANCHERLA","sdtname":"NELLORE RURAL","dtname":"SRI POTTI SRIRAMULU NELLORE","stname":"ANDHRA PRADESH","country":"India"}},{"type":"Feature","geometry":{"type":"Point","coordinates":[79.884498,14.463525]},"properties":{"secretariatName":"DEVARAPALEM","villageName":"DEVARAPALEM","sdtname":"NELLORE RURAL","dtname":"SRI POTTI SRIRAMULU NELLORE","stname":"ANDHRA PRADESH","country":"India"}},{"type":"Feature","geometry":{"type":"Point","coordinates":[79.88893,14.38596]},"properties":{"secretariatName":"DONTHALI","villageName":"DONTHALI","sdtname":"NELLORE RURAL","dtname":"SRI POTTI SRIRAMULU NELLORE","stname":"ANDHRA PRADESH","country":"India"}},{"type":"Feature","geometry":{"type":"Point","coordinates":[79.802238,14.517443]},"properties":{"secretariatName":"GOLLAKANDUKURU","villageName":"GOLLAKANDUKURU","sdtname":"NELLORE RURAL","dtname":"SRI POTTI SRIRAMULU NELLORE","stname":"ANDHRA PRADESH","country":"India"}},{"type":"Feature","geometry":{"type":"Point","coordinates":[80.025546,14.392776]},"properties":{"secretariatName":"KAKUPALLIBIT-I","villageName":"KAKUPALLIBIT-I","sdtname":"NELLORE RURAL","dtname":"SRI POTTI SRIRAMULU NELLORE","stname":"ANDHRA PRADESH","country":"India"}},{"type":"Feature","geometry":{"type":"Point","coordinates":[79.790164,14.466649]},"properties":{"secretariatName":"KANDAMURU","villageName":"KANDAMURU","sdtname":"NELLORE RURAL","dtname":"SRI POTTI SRIRAMULU NELLORE","stname":"ANDHRA PRADESH","country":"India"}},{"type":"Feature","geometry":{"type":"Point","coordinates":[79.913251,14.459611]},"properties":{"secretariatName":"KONDLAPUDI","villageName":"KONDLAPUDI","sdtname":"NELLORE RURAL","dtname":"SRI POTTI SRIRAMULU NELLORE","stname":"ANDHRA PRADESH","country":"India"}},{"type":"Feature","geometry":{"type":"Point","coordinates":[80.037599,14.3678]},"properties":{"secretariatName":"MADARAJAGUDUR","villageName":"MADARAJAGUDUR","sdtname":"NELLORE RURAL","dtname":"SRI POTTI SRIRAMULU NELLORE","stname":"ANDHRA PRADESH","country":"India"}},{"type":"Feature","geometry":{"type":"Point","coordinates":[79.85143,14.458371]},"properties":{"secretariatName":"MULUMUDI","villageName":"MULUMUDI","sdtname":"NELLORE RURAL","dtname":"SRI POTTI SRIRAMULU NELLORE","stname":"ANDHRA PRADESH","country":"India"}},{"type":"Feature","geometry":{"type":"Point","coordinates":[80.015649,14.347382]},"properties":{"secretariatName":"PENUBARTHI","villageName":"PENUBARTHI","sdtname":"NELLORE RURAL","dtname":"SRI POTTI SRIRAMULU NELLORE","stname":"ANDHRA PRADESH","country":"India"}},{"type":"Feature","geometry":{"type":"Point","coordinates":[79.823794,14.4391]},"properties":{"secretariatName":"SOUTHMOPUR","villageName":"SOUTHMOPUR","sdtname":"NELLORE RURAL","dtname":"SRI POTTI SRIRAMULU NELLORE","stname":"ANDHRA PRADESH","country":"India"}},{"type":"Feature","geometry":{"type":"Point","coordinates":[79.812105,14.470679]},"properties":{"secretariatName":"VELLANTI","villageName":"VELLANTI","sdtname":"NELLORE RURAL","dtname":"SRI POTTI SRIRAMULU NELLORE","stname":"ANDHRA PRADESH","country":"India"}},{"type":"Feature","geometry":{"type":"Point","coordinates":[79.706537,14.518981]},"properties":{"secretariatName":"BATHULAPALLI","villageName":"BATHULAPALLI","sdtname":"PODALAKUR","dtname":"SRI POTTI SRIRAMULU NELLORE","stname":"ANDHRA PRADESH","country":"India"}},{"type":"Feature","geometry":{"type":"Point","coordinates":[79.7685609,14.3434157]},"properties":{"secretariatName":"BIRADAVOLU","villageName":"BIRADAVOLU","sdtname":"PODALAKUR","dtname":"SRI POTTI SRIRAMULU NELLORE","stname":"ANDHRA PRADESH","country":"India"}},{"type":"Feature","geometry":{"type":"Point","coordinates":[79.71259,14.331472]},"properties":{"secretariatName":"DEGAPUDI","villageName":"DEGAPUDI","sdtname":"PODALAKUR","dtname":"SRI POTTI SRIRAMULU NELLORE","stname":"ANDHRA PRADESH","country":"India"}},{"type":"Feature","geometry":{"type":"Point","coordinates":[79.657177,14.311302]},"properties":{"secretariatName":"DUGGUNTARAJUPALEM","villageName":"DUGGUNTARAJUPALEM","sdtname":"PODALAKUR","dtname":"SRI POTTI SRIRAMULU NELLORE","stname":"ANDHRA PRADESH","country":"India"}},{"type":"Feature","geometry":{"type":"Point","coordinates":[79.712852,14.341665]},"properties":{"secretariatName":"INKURTHI","villageName":"INKURTHI","sdtname":"PODALAKUR","dtname":"SRI POTTI SRIRAMULU NELLORE","stname":"ANDHRA PRADESH","country":"India"}},{"type":"Feature","geometry":{"type":"Point","coordinates":[79.694604,14.423925]},"properties":{"secretariatName":"KANUPARTHI","villageName":"KANUPARTHI","sdtname":"PODALAKUR","dtname":"SRI POTTI SRIRAMULU NELLORE","stname":"ANDHRA PRADESH","country":"India"}},{"type":"Feature","geometry":{"type":"Point","coordinates":[79.801592,14.402434]},"properties":{"secretariatName":"MARUPURU","villageName":"MARUPURU","sdtname":"PODALAKUR","dtname":"SRI POTTI SRIRAMULU NELLORE","stname":"ANDHRA PRADESH","country":"India"}},{"type":"Feature","geometry":{"type":"Point","coordinates":[79.6661023,14.3974427]},"properties":{"secretariatName":"MOGALLURU","villageName":"MOGALLURU","sdtname":"PODALAKUR","dtname":"SRI POTTI SRIRAMULU NELLORE","stname":"ANDHRA PRADESH","country":"India"}},{"type":"Feature","geometry":{"type":"Point","coordinates":[79.7704689,14.5349401]},"properties":{"secretariatName":"MOHAMADAPURAM","villageName":"MOHAMADAPURAM","sdtname":"PODALAKUR","dtname":"SRI POTTI SRIRAMULU NELLORE","stname":"ANDHRA PRADESH","country":"India"}},{"type":"Feature","geometry":{"type":"Point","coordinates":[79.6742918,14.4831766]},"properties":{"secretariatName":"NAVURU","villageName":"NAVURU","sdtname":"PODALAKUR","dtname":"SRI POTTI SRIRAMULU NELLORE","stname":"ANDHRA PRADESH","country":"India"}},{"type":"Feature","geometry":{"type":"Point","coordinates":[79.73819,14.528668]},"properties":{"secretariatName":"NEDURUPALLI","villageName":"NEDURUPALLI","sdtname":"PODALAKUR","dtname":"SRI POTTI SRIRAMULU NELLORE","stname":"ANDHRA PRADESH","country":"India"}},{"type":"Feature","geometry":{"type":"Point","coordinates":[79.733001,14.390135]},"properties":{"secretariatName":"PODALAKURU1","villageName":"PODALAKURU1","sdtname":"PODALAKUR","dtname":"SRI POTTI SRIRAMULU NELLORE","stname":"ANDHRA PRADESH","country":"India"}},{"type":"Feature","geometry":{"type":"Point","coordinates":[79.734315,14.388588]},"properties":{"secretariatName":"PODALAKURU2","villageName":"PODALAKURU2","sdtname":"PODALAKUR","dtname":"SRI POTTI SRIRAMULU NELLORE","stname":"ANDHRA PRADESH","country":"India"}},{"type":"Feature","geometry":{"type":"Point","coordinates":[79.7308052,14.3800529]},"properties":{"secretariatName":"PODALAKURU3","villageName":"PODALAKURU3","sdtname":"PODALAKUR","dtname":"SRI POTTI SRIRAMULU NELLORE","stname":"ANDHRA PRADESH","country":"India"}},{"type":"Feature","geometry":{"type":"Point","coordinates":[79.7328839,14.3902644]},"properties":{"secretariatName":"PODALAKURU4","villageName":"PODALAKURU4","sdtname":"PODALAKUR","dtname":"SRI POTTI SRIRAMULU NELLORE","stname":"ANDHRA PRADESH","country":"India"}},{"type":"Feature","geometry":{"type":"Point","coordinates":[79.7471783,14.4587223]},"properties":{"secretariatName":"PRABHAGIRIPATNAM","villageName":"PRABHAGIRIPATNAM","sdtname":"PODALAKUR","dtname":"SRI POTTI SRIRAMULU NELLORE","stname":"ANDHRA PRADESH","country":"India"}},{"type":"Feature","geometry":{"type":"Point","coordinates":[79.66173,14.419774]},"properties":{"secretariatName":"R.Y.PALEM","villageName":"R.Y.PALEM","sdtname":"PODALAKUR","dtname":"SRI POTTI SRIRAMULU NELLORE","stname":"ANDHRA PRADESH","country":"India"}},{"type":"Feature","geometry":{"type":"Point","coordinates":[79.725569,14.568432]},"properties":{"secretariatName":"SURAYAPALEM","villageName":"SURAYAPALEM","sdtname":"PODALAKUR","dtname":"SRI POTTI SRIRAMULU NELLORE","stname":"ANDHRA PRADESH","country":"India"}},{"type":"Feature","geometry":{"type":"Point","coordinates":[79.767316,14.518733]},"properties":{"secretariatName":"TATIPARTHI1","villageName":"TATIPARTHI1","sdtname":"PODALAKUR","dtname":"SRI POTTI SRIRAMULU NELLORE","stname":"ANDHRA PRADESH","country":"India"}},{"type":"Feature","geometry":{"type":"Point","coordinates":[79.7499739,14.502477]},"properties":{"secretariatName":"TATIPARTHI2","villageName":"TATIPARTHI2","sdtname":"PODALAKUR","dtname":"SRI POTTI SRIRAMULU NELLORE","stname":"ANDHRA PRADESH","country":"India"}},{"type":"Feature","geometry":{"type":"Point","coordinates":[79.7659219,14.4116677]},"properties":{"secretariatName":"THODERU","villageName":"THODERU","sdtname":"PODALAKUR","dtname":"SRI POTTI SRIRAMULU NELLORE","stname":"ANDHRA PRADESH","country":"India"}},{"type":"Feature","geometry":{"type":"Point","coordinates":[79.653336,14.361251]},"properties":{"secretariatName":"VAVINTAPARTHI","villageName":"VAVINTAPARTHI","sdtname":"PODALAKUR","dtname":"SRI POTTI SRIRAMULU NELLORE","stname":"ANDHRA PRADESH","country":"India"}},{"type":"Feature","geometry":{"type":"Point","coordinates":[79.752347,14.557524]},"properties":{"secretariatName":"VIRUVURU","villageName":"VIRUVURU","sdtname":"PODALAKUR","dtname":"SRI POTTI SRIRAMULU NELLORE","stname":"ANDHRA PRADESH","country":"India"}},{"type":"Feature","geometry":{"type":"Point","coordinates":[79.5050107,14.2934072]},"properties":{"secretariatName":"AKILAVALASA","villageName":"AKILAVALASA","sdtname":"RAPUR","dtname":"SRI POTTI SRIRAMULU NELLORE","stname":"ANDHRA PRADESH","country":"India"}},{"type":"Feature","geometry":{"type":"Point","coordinates":[79.5681911,14.2247614]},"properties":{"secretariatName":"BOJJANAPALLI","villageName":"BOJJANAPALLI","sdtname":"RAPUR","dtname":"SRI POTTI SRIRAMULU NELLORE","stname":"ANDHRA PRADESH","country":"India"}},