{"type":"FeatureCollection","features":[{"type":"Feature","geometry":{"type":"Point","coordinates":[83.3710922,17.9024975]},"properties":{"secretariatName":"ANANDAPURAM","villageName":"ANANDAPURAM","sdtname":"ANANDAPURAM","dtname":"VISAKHAPATNAM","stname":"ANDHRA PRADESH","country":"India"}},{"type":"Feature","geometry":{"type":"Point","coordinates":[83.343975,17.964599]},"properties":{"secretariatName":"BONI","villageName":"BONI","sdtname":"ANANDAPURAM","dtname":"VISAKHAPATNAM","stname":"ANDHRA PRADESH","country":"India"}},{"type":"Feature","geometry":{"type":"Point","coordinates":[83.3623967,17.922296]},"properties":{"secretariatName":"CHANDAKA","villageName":"CHANDAKA","sdtname":"ANANDAPURAM","dtname":"VISAKHAPATNAM","stname":"ANDHRA PRADESH","country":"India"}},{"type":"Feature","geometry":{"type":"Point","coordinates":[83.3664439,17.8698065]},"properties":{"secretariatName":"GAMBHEERAM","villageName":"GAMBHEERAM","sdtname":"ANANDAPURAM","dtname":"VISAKHAPATNAM","stname":"ANDHRA PRADESH","country":"India"}},{"type":"Feature","geometry":{"type":"Point","coordinates":[83.2565439,17.8433272]},"properties":{"secretariatName":"GANDIGUNDAM","villageName":"GANDIGUNDAM","sdtname":"ANANDAPURAM","dtname":"VISAKHAPATNAM","stname":"ANDHRA PRADESH","country":"India"}},{"type":"Feature","geometry":{"type":"Point","coordinates":[83.2935914,17.8926239]},"properties":{"secretariatName":"GIDIJALA","villageName":"GIDIJALA","sdtname":"ANANDAPURAM","dtname":"VISAKHAPATNAM","stname":"ANDHRA PRADESH","country":"India"}},{"type":"Feature","geometry":{"type":"Point","coordinates":[83.35576,17.9366622]},"properties":{"secretariatName":"GOTTIPALLI","villageName":"GOTTIPALLI","sdtname":"ANANDAPURAM","dtname":"VISAKHAPATNAM","stname":"ANDHRA PRADESH","country":"India"}},{"type":"Feature","geometry":{"type":"Point","coordinates":[83.341094,17.943525]},"properties":{"secretariatName":"KUSULUVADA","villageName":"KUSULUVADA","sdtname":"ANANDAPURAM","dtname":"VISAKHAPATNAM","stname":"ANDHRA PRADESH","country":"India"}},{"type":"Feature","geometry":{"type":"Point","coordinates":[83.3686087,17.8939162]},"properties":{"secretariatName":"LODAGALAVANIPALEM","villageName":"LODAGALAVANIPALEM","sdtname":"ANANDAPURAM","dtname":"VISAKHAPATNAM","stname":"ANDHRA PRADESH","country":"India"}},{"type":"Feature","geometry":{"type":"Point","coordinates":[83.286506,17.852468]},"properties":{"secretariatName":"MAMIDILOVA","villageName":"MAMIDILOVA","sdtname":"ANANDAPURAM","dtname":"VISAKHAPATNAM","stname":"ANDHRA PRADESH","country":"India"}},{"type":"Feature","geometry":{"type":"Point","coordinates":[83.277076,17.876875]},"properties":{"secretariatName":"MUTUCHARLA","villageName":"MUTUCHARLA","sdtname":"ANANDAPURAM","dtname":"VISAKHAPATNAM","stname":"ANDHRA PRADESH","country":"India"}},{"type":"Feature","geometry":{"type":"Point","coordinates":[83.354394,17.9004555]},"properties":{"secretariatName":"PALAVALASA","villageName":"PALAVALASA","sdtname":"ANANDAPURAM","dtname":"VISAKHAPATNAM","stname":"ANDHRA PRADESH","country":"India"}},{"type":"Feature","geometry":{"type":"Point","coordinates":[83.4001238,17.9083844]},"properties":{"secretariatName":"PEDDIPALEM","villageName":"PEDDIPALEM","sdtname":"ANANDAPURAM","dtname":"VISAKHAPATNAM","stname":"ANDHRA PRADESH","country":"India"}},{"type":"Feature","geometry":{"type":"Point","coordinates":[83.2455853,17.862827]},"properties":{"secretariatName":"RAMAVARAM","villageName":"RAMAVARAM","sdtname":"ANANDAPURAM","dtname":"VISAKHAPATNAM","stname":"ANDHRA PRADESH","country":"India"}},{"type":"Feature","geometry":{"type":"Point","coordinates":[83.2955431,17.8666539]},"properties":{"secretariatName":"SOTYAM","villageName":"SOTYAM","sdtname":"ANANDAPURAM","dtname":"VISAKHAPATNAM","stname":"ANDHRA PRADESH","country":"India"}},{"type":"Feature","geometry":{"type":"Point","coordinates":[83.3314919,17.9027737]},"properties":{"secretariatName":"TARLUVADA","villageName":"TARLUVADA","sdtname":"ANANDAPURAM","dtname":"VISAKHAPATNAM","stname":"ANDHRA PRADESH","country":"India"}},{"type":"Feature","geometry":{"type":"Point","coordinates":[83.389194,17.894279]},"properties":{"secretariatName":"VELLANKI","villageName":"VELLANKI","sdtname":"ANANDAPURAM","dtname":"VISAKHAPATNAM","stname":"ANDHRA PRADESH","country":"India"}},{"type":"Feature","geometry":{"type":"Point","coordinates":[83.3767765,17.8948991]},"properties":{"secretariatName":"VEMULAVALASA","villageName":"VEMULAVALASA","sdtname":"ANANDAPURAM","dtname":"VISAKHAPATNAM","stname":"ANDHRA PRADESH","country":"India"}},{"type":"Feature","geometry":{"type":"Point","coordinates":[83.45574,17.9573]},"properties":{"secretariatName":"AMANAM","villageName":"AMANAM","sdtname":"BHEEMUNIPATNAM","dtname":"VISAKHAPATNAM","stname":"ANDHRA PRADESH","country":"India"}},{"type":"Feature","geometry":{"type":"Point","coordinates":[83.4944601,17.9363904]},"properties":{"secretariatName":"ANNAVARAM","villageName":"ANNAVARAM","sdtname":"BHEEMUNIPATNAM","dtname":"VISAKHAPATNAM","stname":"ANDHRA PRADESH","country":"India"}},{"type":"Feature","geometry":{"type":"Point","coordinates":[83.4091479,17.8529456]},"properties":{"secretariatName":"CHEPALUPPADA","villageName":"CHEPALUPPADA","sdtname":"BHEEMUNIPATNAM","dtname":"VISAKHAPATNAM","stname":"ANDHRA PRADESH","country":"India"}},{"type":"Feature","geometry":{"type":"Point","coordinates":[83.45507,17.92747]},"properties":{"secretariatName":"CHIPPADA","villageName":"CHIPPADA","sdtname":"BHEEMUNIPATNAM","dtname":"VISAKHAPATNAM","stname":"ANDHRA PRADESH","country":"India"}},{"type":"Feature","geometry":{"type":"Point","coordinates":[83.4005527,17.9900933]},"properties":{"secretariatName":"DAKAMARRI","villageName":"DAKAMARRI","sdtname":"BHEEMUNIPATNAM","dtname":"VISAKHAPATNAM","stname":"ANDHRA PRADESH","country":"India"}},{"type":"Feature","geometry":{"type":"Point","coordinates":[83.406882,17.883837]},"properties":{"secretariatName":"J.V.AGRAHARAM","villageName":"J.V.AGRAHARAM","sdtname":"BHEEMUNIPATNAM","dtname":"VISAKHAPATNAM","stname":"ANDHRA PRADESH","country":"India"}},{"type":"Feature","geometry":{"type":"Point","coordinates":[83.399657,17.8394039]},"properties":{"secretariatName":"K.NAGARAPALEM-1","villageName":"K.NAGARAPALEM-1","sdtname":"BHEEMUNIPATNAM","dtname":"VISAKHAPATNAM","stname":"ANDHRA PRADESH","country":"India"}},{"type":"Feature","geometry":{"type":"Point","coordinates":[83.4119448,17.8321568]},"properties":{"secretariatName":"K.NAGARAPALEM-2","villageName":"K.NAGARAPALEM-2","sdtname":"BHEEMUNIPATNAM","dtname":"VISAKHAPATNAM","stname":"ANDHRA PRADESH","country":"India"}},{"type":"Feature","geometry":{"type":"Point","coordinates":[83.3847484,17.8540414]},"properties":{"secretariatName":"KAPULUPPPADA","villageName":"KAPULUPPPADA","sdtname":"BHEEMUNIPATNAM","dtname":"VISAKHAPATNAM","stname":"ANDHRA PRADESH","country":"India"}},{"type":"Feature","geometry":{"type":"Point","coordinates":[83.397796,17.959994]},"properties":{"secretariatName":"LAKSHMIPURAM","villageName":"LAKSHMIPURAM","sdtname":"BHEEMUNIPATNAM","dtname":"VISAKHAPATNAM","stname":"ANDHRA PRADESH","country":"India"}},{"type":"Feature","geometry":{"type":"Point","coordinates":[83.378606,17.987964]},"properties":{"secretariatName":"MAJJIPETA","villageName":"MAJJIPETA","sdtname":"BHEEMUNIPATNAM","dtname":"VISAKHAPATNAM","stname":"ANDHRA PRADESH","country":"India"}},{"type":"Feature","geometry":{"type":"Point","coordinates":[83.392702,17.948504]},"properties":{"secretariatName":"MAJJIVALASA","villageName":"MAJJIVALASA","sdtname":"BHEEMUNIPATNAM","dtname":"VISAKHAPATNAM","stname":"ANDHRA PRADESH","country":"India"}},{"type":"Feature","geometry":{"type":"Point","coordinates":[83.449796,17.91919]},"properties":{"secretariatName":"MULAKUDDU","villageName":"MULAKUDDU","sdtname":"BHEEMUNIPATNAM","dtname":"VISAKHAPATNAM","stname":"ANDHRA PRADESH","country":"India"}},{"type":"Feature","geometry":{"type":"Point","coordinates":[83.396347,17.867386]},"properties":{"secretariatName":"NIDIGATTU","villageName":"NIDIGATTU","sdtname":"BHEEMUNIPATNAM","dtname":"VISAKHAPATNAM","stname":"ANDHRA PRADESH","country":"India"}},{"type":"Feature","geometry":{"type":"Point","coordinates":[83.461114,17.919808]},"properties":{"secretariatName":"PEDANAGAMAYYAPALEM","villageName":"PEDANAGAMAYYAPALEM","sdtname":"BHEEMUNIPATNAM","dtname":"VISAKHAPATNAM","stname":"ANDHRA PRADESH","country":"India"}},{"type":"Feature","geometry":{"type":"Point","coordinates":[83.4003798,17.9627973]},"properties":{"secretariatName":"SINGANABANDA","villageName":"SINGANABANDA","sdtname":"BHEEMUNIPATNAM","dtname":"VISAKHAPATNAM","stname":"ANDHRA PRADESH","country":"India"}},{"type":"Feature","geometry":{"type":"Point","coordinates":[83.4161391,17.9377406]},"properties":{"secretariatName":"T.NAGARAPALEM","villageName":"T.NAGARAPALEM","sdtname":"BHEEMUNIPATNAM","dtname":"VISAKHAPATNAM","stname":"ANDHRA PRADESH","country":"India"}},{"type":"Feature","geometry":{"type":"Point","coordinates":[83.412947,17.911506]},"properties":{"secretariatName":"TALLAVALASA","villageName":"TALLAVALASA","sdtname":"BHEEMUNIPATNAM","dtname":"VISAKHAPATNAM","stname":"ANDHRA PRADESH","country":"India"}},{"type":"Feature","geometry":{"type":"Point","coordinates":[83.4000925,17.935155]},"properties":{"secretariatName":"TATITURU","villageName":"TATITURU","sdtname":"BHEEMUNIPATNAM","dtname":"VISAKHAPATNAM","stname":"ANDHRA PRADESH","country":"India"}},{"type":"Feature","geometry":{"type":"Point","coordinates":[83.29269,17.96823]},"properties":{"secretariatName":"ANANTHAVARAM","villageName":"ANANTHAVARAM","sdtname":"PADMANABHAM","dtname":"VISAKHAPATNAM","stname":"ANDHRA PRADESH","country":"India"}},{"type":"Feature","geometry":{"type":"Point","coordinates":[83.3961,18.0451]},"properties":{"secretariatName":"AYINADA","villageName":"AYINADA","sdtname":"PADMANABHAM","dtname":"VISAKHAPATNAM","stname":"ANDHRA PRADESH","country":"India"}},{"type":"Feature","geometry":{"type":"Point","coordinates":[83.386481,18.02985]},"properties":{"secretariatName":"B.R.THALLAVALASA","villageName":"B.R.THALLAVALASA","sdtname":"PADMANABHAM","dtname":"VISAKHAPATNAM","stname":"ANDHRA PRADESH","country":"India"}},{"type":"Feature","geometry":{"type":"Point","coordinates":[83.29609748,17.99546373]},"properties":{"secretariatName":"BANDEVUPURAM","villageName":"BANDEVUPURAM","sdtname":"PADMANABHAM","dtname":"VISAKHAPATNAM","stname":"ANDHRA PRADESH","country":"India"}},{"type":"Feature","geometry":{"type":"Point","coordinates":[83.278635,17.986682]},"properties":{"secretariatName":"GANDHAVARAM","villageName":"GANDHAVARAM","sdtname":"PADMANABHAM","dtname":"VISAKHAPATNAM","stname":"ANDHRA PRADESH","country":"India"}},{"type":"Feature","geometry":{"type":"Point","coordinates":[83.3794476,17.9975621]},"properties":{"secretariatName":"KORADA","villageName":"KORADA","sdtname":"PADMANABHAM","dtname":"VISAKHAPATNAM","stname":"ANDHRA PRADESH","country":"India"}},{"type":"Feature","geometry":{"type":"Point","coordinates":[83.256752,17.965663]},"properties":{"secretariatName":"KOVVADA","villageName":"KOVVADA","sdtname":"PADMANABHAM","dtname":"VISAKHAPATNAM","stname":"ANDHRA PRADESH","country":"India"}},{"type":"Feature","geometry":{"type":"Point","coordinates":[83.338342,17.981185]},"properties":{"secretariatName":"KRISHNAPURAM","villageName":"KRISHNAPURAM","sdtname":"PADMANABHAM","dtname":"VISAKHAPATNAM","stname":"ANDHRA PRADESH","country":"India"}},{"type":"Feature","geometry":{"type":"Point","coordinates":[83.323162,17.981981]},"properties":{"secretariatName":"MADDI","villageName":"MADDI","sdtname":"PADMANABHAM","dtname":"VISAKHAPATNAM","stname":"ANDHRA PRADESH","country":"India"}},{"type":"Feature","geometry":{"type":"Point","coordinates":[83.3581128,18.0538118]},"properties":{"secretariatName":"NERELLAVALASA","villageName":"NERELLAVALASA","sdtname":"PADMANABHAM","dtname":"VISAKHAPATNAM","stname":"ANDHRA PRADESH","country":"India"}},{"type":"Feature","geometry":{"type":"Point","coordinates":[83.334654,17.990066]},"properties":{"secretariatName":"PADMANABHAM","villageName":"PADMANABHAM","sdtname":"PADMANABHAM","dtname":"VISAKHAPATNAM","stname":"ANDHRA PRADESH","country":"India"}},{"type":"Feature","geometry":{"type":"Point","coordinates":[83.3650762,17.9638898]},"properties":{"secretariatName":"PANDRANGI","villageName":"PANDRANGI","sdtname":"PADMANABHAM","dtname":"VISAKHAPATNAM","stname":"ANDHRA PRADESH","country":"India"}},{"type":"Feature","geometry":{"type":"Point","coordinates":[83.32147857,18.01910429]},"properties":{"secretariatName":"POTNURU","villageName":"POTNURU","sdtname":"PADMANABHAM","dtname":"VISAKHAPATNAM","stname":"ANDHRA PRADESH","country":"India"}},{"type":"Feature","geometry":{"type":"Point","coordinates":[83.3381038,18.0129593]},"properties":{"secretariatName":"REDDIPALLLI","villageName":"REDDIPALLLI","sdtname":"PADMANABHAM","dtname":"VISAKHAPATNAM","stname":"ANDHRA PRADESH","country":"India"}},{"type":"Feature","geometry":{"type":"Point","coordinates":[83.3725792,17.9641342]},"properties":{"secretariatName":"REVIDI","villageName":"REVIDI","sdtname":"PADMANABHAM","dtname":"VISAKHAPATNAM","stname":"ANDHRA PRADESH","country":"India"}},{"type":"Feature","geometry":{"type":"Point","coordinates":[83.34656,18.0364348]},"properties":{"secretariatName":"TUNIVALASA","villageName":"TUNIVALASA","sdtname":"PADMANABHAM","dtname":"VISAKHAPATNAM","stname":"ANDHRA PRADESH","country":"India"}},{"type":"Feature","geometry":{"type":"Point","coordinates":[83.1638476,17.7809552]},"properties":{"secretariatName":"CHINTAGATLA","villageName":"CHINTAGATLA","sdtname":"PENDURTHI","dtname":"VISAKHAPATNAM","stname":"ANDHRA PRADESH","country":"India"}},{"type":"Feature","geometry":{"type":"Point","coordinates":[83.1766983,17.8353333]},"properties":{"secretariatName":"GORAPALLI","villageName":"GORAPALLI","sdtname":"PENDURTHI","dtname":"VISAKHAPATNAM","stname":"ANDHRA PRADESH","country":"India"}},{"type":"Feature","geometry":{"type":"Point","coordinates":[83.2150297,17.8419601]},"properties":{"secretariatName":"GURRAMPALEM","villageName":"GURRAMPALEM","sdtname":"PENDURTHI","dtname":"VISAKHAPATNAM","stname":"ANDHRA PRADESH","country":"India"}},{"type":"Feature","geometry":{"type":"Point","coordinates":[83.1752604,17.7975099]},"properties":{"secretariatName":"PEDAGADI","villageName":"PEDAGADI","sdtname":"PENDURTHI","dtname":"VISAKHAPATNAM","stname":"ANDHRA PRADESH","country":"India"}},{"type":"Feature","geometry":{"type":"Point","coordinates":[83.173938,17.804371]},"properties":{"secretariatName":"PINAGADI","villageName":"PINAGADI","sdtname":"PENDURTHI","dtname":"VISAKHAPATNAM","stname":"ANDHRA PRADESH","country":"India"}},{"type":"Feature","geometry":{"type":"Point","coordinates":[83.1820686,17.8114622]},"properties":{"secretariatName":"RAMPURAM","villageName":"RAMPURAM","sdtname":"PENDURTHI","dtname":"VISAKHAPATNAM","stname":"ANDHRA PRADESH","country":"India"}},{"type":"Feature","geometry":{"type":"Point","coordinates":[83.249465,17.826372]},"properties":{"secretariatName":"S.R.PURAM","villageName":"S.R.PURAM","sdtname":"PENDURTHI","dtname":"VISAKHAPATNAM","stname":"ANDHRA PRADESH","country":"India"}},{"type":"Feature","geometry":{"type":"Point","coordinates":[83.2008766,17.8405349]},"properties":{"secretariatName":"SARIPALLI","villageName":"SARIPALLI","sdtname":"PENDURTHI","dtname":"VISAKHAPATNAM","stname":"ANDHRA PRADESH","country":"India"}},{"type":"Feature","geometry":{"type":"Point","coordinates":[83.233895,17.8254]},"properties":{"secretariatName":"VALIMERAKA","villageName":"VALIMERAKA","sdtname":"PENDURTHI","dtname":"VISAKHAPATNAM","stname":"ANDHRA PRADESH","country":"India"}}]}